id,name,slug,type,address,city_id,lat,lng,is_open,is_nfc,cash_in,working_weekends,is_digital,work_hours_week,work_hours_saturday,work_hours_sunday,notes
2,Bolmart Saray qəsəbəsi,bolmart-saray-qesebesi,A,,2,40.521889,49.68898,1,0,0,0,0,,,,
3,"Araz market, Saray qəsəbəsi",araz-market-saray-qesebesi,A,"Abşeron rayonu, Saray qəsəbəsi, Bakı-Sumqayıt yolu",2,40.523826,49.68749,1,1,0,0,0,,,,
4,"Azər City Supermarket, Masazır qəsəbəsi",azer-city-supermarket-masazir-qesebesi,A,"Masazır qəsəbəsi, Bakı-Sumqayıt yolunun 12-ci km",2,40.451086,49.765077,1,1,0,0,0,,,,
5,"Bazarstore, Hökməli qəsəbəsi",bazarstore-hokmeli-qesebesi,A,"Abşeron rayonu, Hökməli qəsəbəsi, Şamaxı yolu 4-cü km 6",2,40.441211,49.748114,1,0,0,0,0,,,,
6,"Araz Market,Ceyranbatan qəsəbəsi",araz-marketceyranbatan-qesebesi,A,"Bakı şəhəri, Ceyranbatan qəsəbəsi, Heydər Əliyev küçəsi 1",2,40.541575,49.661872,1,0,0,0,0,,,,
7,"Saray qəsəbəsi, Əsləm Market",eslem-market-saray-qesebesi,A,"Abşeron rayonu, Saray qəsəbəsi, M. Ə. Rəsulzadə küçəsi",2,40.530241,49.714426,1,0,0,0,0,,,,
8,"Mehdiabad bələdiyyəsi, Mehdiabad qəsəbəsi",mehdiabad-belediyyesi-mehdiabad-qesebesi,A,"Mehdiabad qəsəbəsi, 28 May küçəsi 28",2,40.496761,49.851878,1,1,0,0,0,,,,
9,"Qobu market,Qobu qəsəbəsi",qobu-marketqobu-qesebesi,A,"Abşeron rayonu, Qobu qəsəbəsi",2,40.407074,49.71291,1,0,0,0,0,,,,
10,"AS market, Novxanı qəsəbəsi",as-market-novxani-qesebesi,A,"Abşeron rayonu, Novxanı qəsəbəsi",2,40.532520,49.785090,1,0,0,0,0,,,,
11,"Petrolux YDM, Novxanı qəsəbəsi",petrolux-ydm-novxani-qesebesi,A,"Abşeron rayonu, Novxanı qəsəbəsi",2,40.557274,49.587952,1,0,0,0,0,,,,
14,"Avşar kəndi, Market",avsar-kendi-market,A,"Ağcabədi rayonu, Avşar kəndi",3,39.975206,47.428099,1,0,0,0,0,,,,
15,"Hacıbədəlli kəndi, Yolüstü market",hacibedelli-kendi-yolustu-market,A,"Ağcabədi rayonu, Hacıbədəlli kəndi",3,40.059121,47.339027,1,0,0,0,0,,,,
16,"Taxtakörpü qəsəbəsi, Laçın YDM",agcabedi-rayonu-taxtakorpu-qesebesi,A,"Ağcabədi rayonu, Taxtakörpü qəsəbəsi",3,40.102912,47.516729,1,0,0,0,0,,,,
17,"Ağcabədi şəhəri, Delfin market",agcabedi-seheri-delfin-market,A,"Ağcabədi şəhəri, H. Əliyev prospekti 372",3,40.03167555,47.45174059,1,0,0,0,0,,,,
18,"Qaradolaq kəndi, Ticarət mərkəzi",ticaret-merkezi-agcabedi-rayonu,A,"Ağcabədi rayonu, Qaradolaq kəndi",3,39.937474,47.453459,1,0,0,0,0,,,,
19,"Ticarət Mərkəzi, Ağcabədi rayonu",ticaret-merkezi-agcabedi-rayonu,A,"Ağcabədi rayonu , H. Əliyev prospekti 54",3,40.044434,47.455951,1,0,0,0,0,,,,
20,"Okean market,  Ağcabədi rayonu",okean-market-agcabedi-rayonu,A,"Ağcabədi rayonu, Ü.Hacıbəyov prospekti",3,40.052846,47.440827,1,0,0,0,0,,,,
22,"İkinci Quzanlı qəsəbəsi, Market",ikinci-quzanli-qesebesi-market,A,"Ağdam rayonu, İkinci Quzanlı qəsəbəsi",4,40.16337,47.156344,1,0,0,0,0,,,,
23,"Birinci Quzanlı qəsəbəsi, ""Nar Mobile"" mağazası",birinci-quzanli-qesebesi-nar-mobile-magazasi,A,"Ağdam rayonu, Birinci Quzanlı qəsəbəsi",4,40.155903,47.162843,1,0,0,0,0,,,,
25,"Dördyol kəndi, Dördyol market",dordyol-kendi-dordyol-market,A,"Ağdam rayonu, Dördyol kəndi",4,40.239778,47.079245,1,0,0,0,0,,,,
26,"Qaradağlı kəndi, Yaşıl market",qaradagli-kendi-yashil-market,A,"Ağdam rayonu, Qaradağlı kəndi",4,40.024936,47.071524,1,0,0,0,0,,,,
27,"Xındırıstan kəndi, Market",xindiristan-kendi-market,A,"Ağdam rayonu, Xındırıstan kəndi",4,40.121223,47.105611,1,0,0,0,0,,,,
28,"Dördyol kəndi, Ağdam Qaçqın Düşərgəsi",dordyol-kendi-agdam-qacqin-dushergesi,A,"Ağdam rayonu, Dördyol kəndi",4,40.240611,47.07601,1,0,0,0,0,,,,
29,"Bənövşələr kəndi, ""Azər Təpə"" market",benovsheler-kendi-azer-tepe-market,A,"Ağdam rayonu, Bənövşələr kəndi",4,40.124958,47.080575,1,0,0,0,0,,,,
30,Ağdaş market,agdash-sheheri-agdash-market,A,"Ağdaş rayonu, M.İsayev 16",5,40.647889,47.471253,1,0,0,0,0,,,,
31,Ağdaş filialı,agdashagdash-filiali,A,"Ağdaş rayonu, H. Əliyеv prospеkti 6",5,40.645269,47.474838,1,0,0,0,0,,,,
33,"Ləki kəndi, Vüsal market Ağdaş rayonu",leki-kendi-vusal-market-agdash-rayonu,A,"Ağdaş rayonu, Ləki kəndi, Sabir küçəsi",5,40.547085,47.422867,1,0,0,0,0,,,,
35,"Ağstafa, ""Kəsəmən"" market (Rafiq Əlicanov küçəsi)",agstafa-kesemen-market-rafiq-elicanov-kucesi,A,"Ağstafa şəhəri, Rafiq Əlicanov küçəsi",6,41.123227,45.44737,1,0,0,0,0,,,,
36,"Ağstafa, Dəmiryol vağzalı",agstafa-demiryol-vagzali,A,"Ağstafa şəhəri, M.Ə.Rasulzadə küçəsi 9",6,41.11168927007477,45.44046469831508,1,0,0,0,0,,,,
37,"Ağstafa şəhəri, ""Kəsəmən"" market (H.Əliyev prospekti)",agstafa-sheheri-kesemen-market-heliyev-prospekti,A,"Ağstafa şəhəri, H.Əliyev prospekti 12",6,41.114611,45.447086,1,0,0,0,0,,,,
39,"Ağsu-Gəgəli yolu, ""Elit"" market",agsu-gegeli-yolu-elit-market,A,"Ağsu rayonu, Ağsu-Gəgəli yolu",7,40.558123,48.403908,1,0,0,0,0,,,,
40,Ağstafa rayon,agstafa-rayon-filiali1,A,"Ağstafa rayonu , H. Əliyev prospekti 1, döngə 1",6,41.112658,45.443019,1,0,0,0,0,,,,
43,"Şiyəkəran kəndi, ""Halal"" market",shiyekeran-kendi-halal-market,A,"Astara rayonu, Şiyəkəran kəndi",8,38.597448,48.839881,1,0,0,0,0,,,,
47,"Ağdaş şəhəri, ""Ağdaş"" market",agdash-sheheri-agdash-market-1,A,"Ağdaş şəhəri, M.İsayev küçəsi 16",5,40.065375,47.189633,1,0,0,0,0,,,,
48,"Ağdam filialı, Ağdam rayonu",agdam-filiali-agdam-rayonu1,A,"Ağdam rayonu, Quzanlı qəsəbəsi",4,40.158158,47.161019,1,0,0,0,0,,,,
49,"Ağdaş  filialı, Ağdaş şəhəri",agdash-rayon-filiali-agdash-sheheri1-1,A,"Ağdaş şəhəri, H. Əliyev küçəsi 6",5,39.989894,47.164903,1,0,0,0,0,,,,
56,"Nehrəm kəndi, İcra Nümayəndəliyi",nehrem-kendi-icra-numayendeliyi-236hlaz,A,"Naxçıvan MR, Babək rayonu, Nehrəm kəndi",9,39.120369,45.467632,1,0,0,0,0,,,,
57,Naxçıvan MR DSMF Babək rayon şöbəsi,babek-filiali-5,A,"Naxçıvan MR, Babək rayonu, Babək qəs., H. Əliyev prospekti 3",9,39.158305,45.447734,1,0,0,0,0,,,,
61,Abad market,abad-market,A,Zaqatala ş. Aliabad qəs.,1,41.48853,46.622947,1,0,0,0,0,,,,
62,Bakı Slavyan Universiteti,baki-slavyan-universiteti-1007,A,"Bakı şəhəri, Nəsimi rayonu, Suleyman Rüstəm küçəsi 33",1,40.38403,49.843703,1,0,0,0,0,,,,
63,Alov zavodu,alov-zavodu-1006,A,"Bakı şəhəri, Yasamal rayonu, Moskva prospekti 77",1,40.39679369180102,49.83176287103797,1,0,0,0,0,,,,
64,Mənzil Kommunal İstismar İdarəsi,menzil-kommunal-istismar-idaresi-1003,A,"Bakı şəhəri, Sabunçu rayonu, Kürdəxanı qəsəbəsi",1,40.520695,49.948361,1,0,0,0,0,,,,
65,Cəmşid Naxçıvanski adına Hərbi lisey,cemshid-naxcivanski-adina-herbi-lisey-1002,A,"Bakı şəhəri, Xətai rayonu, Ziğ şossesi",1,40.347999,49.962221,1,0,0,0,0,,,,
66,Rahat Market (Zabrat),rahat-market-zabrat-1001,A,"Bakı şəhəri, Sabunçu rayonu Zabrat ŞTQ Babkək 110H",1,40.35889,49.836771,1,0,1,0,0,,,,
67,Müasir Tikinti Zavodu,muasir-tikinti-zavodu-1000,A,"Bakı şəhəri, Salyan şossesi 47 km",1,40.58595016185355,49.667555907832835,1,0,0,0,0,,,,
68,Caspian Plaza,caspian-plaza-999,A,"Bakı şəhəri, Cəfər Cabbarlı 44",1,40.385096,49.828606,1,0,1,0,0,,,,
69,"Araz market, Məmmədli qəsəbəsi",araz-market-memmedli-qesebesi-994,A,"Bakı şəhəri, Sabunçu rayonu, Məmmədli qəsəbəsi",1,40.497058,49.949655,1,0,1,0,0,,,,
70,Nəsimi filialı,nesimi-filiali-993,A,"Bakı şəhəri, Nəsimi rayonu, İ.Qasımov küçəsi 4",1,40.393474,49.836667,1,0,0,0,0,,,,
72,"Şimal Elektrik Stansiyası MMC, Şüvəlan qəsəbəsi",shimal-elektrik-stansiyasi-mmc-shuvelan-qesebesi-986,A,"Bakı şəhəri, Şüvəlan qəsəbəsi, A.İldırım küçəsi 32",1,40.500191,50.203784,1,0,0,0,0,,,,
73,Landmark,landmark-985,A,"Bakı şəhəri, Nizami küçəsi 96E",1,40.375879,49.849932,1,0,0,0,0,,,,
74,Leyla Şıxlinskaya Klinikası,leyla-shixlinskaya-klinikasi-984,A,"Bakı şəhəri, Yusif Səfərov küçəsi 25",1,40.37789859985199,49.905370261632086,1,0,0,0,0,,,,
75,Socar Petrol,socar-petrol-983,A,"Bakı şəhəri, Babək prospekti 2269-cu məhəllə, bina 1",1,40.391989,49.909949,1,0,0,0,0,,,,
76,Sea Breeze Resort,sea-breeze-resort-981,A,"Bakı şəhəri, Nardaran qəsəbəsi",1,40.591793,49.985786,1,0,0,0,0,,,,
79,Bridge Plaza,bridge-plaza-979,A,"Bakı ş, Nəsimi rayonu, Bakıxanov küçəsi 24",1,40.387106892549255,49.82929348273956,1,0,0,0,0,,,,
80,"Araz Market, Sahil qəsəbəsi",araz-market-sahil-qesebesi-978,A,"Bakı şəhəri, Qaradağ rayonu, Sahil qəsəbəsi, M.Seyidov küçəsi",1,40.225486,49.572477,1,0,1,0,0,,,,
81,Heydər Əliyev Mərkəzi,heyder-eliyev-merkezi-977,A,"Bakı şəhəri, Heydər Əliyev prospekti 1",1,40.396549,49.866436,1,0,1,0,0,,,,
82,ŞüvəlanPark Ticarət Mərkəzi,shuvelanpark-ticaret-merkezi-976,A,"Bakı şəhəri, Xəzər rayonu, Almaz İldırım 68",1,40.38145763001017,49.80940011338679,1,0,0,0,0,,,,
83,Port Baku,port-baku-922,A,"Bakı şəhəri, Neftçilər prospekti 153",1,40.376018215890745,49.86126340740964,1,0,0,0,0,,,,
84,Port Baku,port-baku-974,A,"Bakı şəhəri, Neftçilər prospekti 153",1,40.376018215890745,49.86126340740964,1,0,0,0,0,,,,
85,Paşa Bank Baş Ofis,pasha-bank-bash-ofis-973,A,"Bakı şəhəri, Y.Məmmədəliyev 13",1,40.370912,49.838781,1,0,0,0,0,,,,
86,Bilgəh Beach Hotel,bilgah-beach-hotel,A,"Bakı şəhəri, Xəzər rayonu, Qəbələ küçəsi 94",1,40.576938,50.064011,1,0,0,0,0,,,,
87,Begoc Office,begoc-office-971,A,"Bakı şəhəri, Zərifə Əliyeva küçəsi 41",1,40.372998,49.850034,1,0,0,0,0,,,,
88,SOCAR Metanol Zavodu,socar-metanol-zavodu-969,A,Salyan şossesi 25-ci km,1,40.27758,49.673252,1,0,0,0,0,,,,
91,Bakı Olimpiya stadionu,baki-olimpiya-stadionu-963,A,"Bakı şəhəri, Heydər Əliyev prospekti 323",1,40.40386506361755,49.959494090694214,1,0,1,0,0,,,,
92,Dalğa Beach Aquapark,dalga-beach-aquapark-960,A,"Bakı şəhəri, Xəzər rayonu",1,41.6295218315769,48.688270208703116,1,0,0,0,0,,,,
93,Baku Expo Center,baku-expo-center-957,A,"Bakı şəhəri, Heydər Əliyev prospekti",1,40.438396,50.035534,1,0,0,0,0,,,,
94,Marriott Absheron Baku,marriott-absheron-baku-955,A,"Bakı şəhəri, Azadlıq 674",1,40.373909,49.856295,1,0,0,0,0,,,,
96,İctimai Televiziya və Radio Yayımları Şirkəti,ictimai-televiziya-ve-radio-yayimlari-shirketi-954,A,"Bakı şəhəri, Yasamal rayonu Şərifzadə küçəsi 241",1,40.402113,49.801851,1,0,0,0,0,,,,
97,Gənclik Mall,genclik-mall-953,A,"Fətəli Xan Xoyski pr. 38, Gənclik Mall TM-nin -1-ci mərtəbəsi",1,40.40066171,49.853639,1,0,0,0,0,,,,
98,Intourist Hotel Baku,intourist-hotel-baku-952,A,"Bakı şəhəri, Mikayıl Useynov 51",1,40.41226411043856,49.847247742203166,1,0,0,0,0,,,,
99,Dinamo Hotel Baku,dinamo-hotel-baku-951,A,"Bakı şəhəri, Zərifə Əliyeva küçəsi 32",1,40.378719,49.948181,1,0,0,0,0,,,,
100,"Marine Plaza, Holiday İnn Baku",marine-plaza-holiday-inn-baku-950,A,"Bakı şəhəri, K.Səfərəliyeva küçəsi 5",1,40.376093,49.859117,1,0,0,0,0,,,,
101,Four Season Hotel,four-season-hotel-949,A,"Bakı şəhəri, Neftçilər prospekti 1",1,40.363008,49.834912,1,0,0,0,0,,,,
102,Park Inn Hotel,park-inn-hotel-948,A,"Bakı şəhəri, Azadlıq prospekti 1",1,40.461426,50.070634,1,1,0,0,0,,,,
103,Boulevard Hotel Baku,boulevard-hotel-baku-947,A,"Bakı şəhəri, Xəqani Rüstəmov küçəsi 4C",1,40.375656,49.882931,1,0,0,0,0,,,,
104,Azərbaycan Dillər Universiteti,azerbaycan-diller-universiteti-946,A,"Bakı şəhəri, Nəsimi rayonu, Rəşid Behbudov küçəsi 134",1,40.383758,49.842503,1,0,0,0,0,,,,
106,"Bona-Dea, Hospital 2",bona-dea-hospital-2-943,A,"Bakı şəhəri, Mehdi Abbasov küçəsi 2",1,40.412208,49.930462,1,0,0,0,0,,,,
107,28 Mall (Parking -1 mərtəbə),28-mall-parking-1-mertebe-942,A,"Bakı şəhəri, Nəsimi rayonu, Azadlıq prospekti 15A",1,40.300586241448286,49.65656418994402,1,0,0,0,0,,,,
109,"Bravo market, 28 Mall",bravo-market-28-mall-940,A,"Bakı şəhəri, Azadlıq prospekti 15A (28 Mall)",1,40.394835,49.859829,1,0,0,0,0,,,,
110,Yeni Lənkəran Hotel,yeni-lenkeran-hotel-987,A,"Lənkəran şəhəri, Haftoni kəndi",1,40.376661,49.907014,1,0,1,0,0,,,,
111,"Buta market, Hövsan kəndi",buta-market-hovsan-kendi-937,A,"Bakı şəhəri, Suraxanı rayonu, Hövsan kəndi, Məktəbli küçəsi 18A",1,40.374154,50.085757,1,0,0,0,0,,,,
112,SOCAR Neolit,socar-neolit-934,A,"Bakı şəhəri, Nizami rayonu, Oqtay Vəliyev küçəsi",1,40.42198747926674,49.842495693700705,1,0,1,0,0,,,,
113,VIP filial,vip-filial-933,A,"Bakı şəhəri, Nəsimi rayonu, Bül-bül prospekti 60, Gulustan residence",1,40.38124504,49.8415248,1,0,1,0,0,,,,
114,ATEF,atef-932,A,"Bakı şəhəri, Zığ şössesi, Qaraçuxur qəsəbəsi",1,40.400212,50.00039,1,0,0,0,0,,,,
115,E-GOV Gənclik,e-gov-genclik-930,A,"Bakı şəhəri, Nəsimi rayonu, M.Mirqasımov küçəsi 25A",1,40.40601,49.848583,1,0,0,0,0,,,,
116,Azərbaycan Dövlət İqtisad Universiteti,azerbaycan-dovlet-iqtisad-universiteti-929,A,"Bakı şəhəri, Nəsimi rayonu, Abbas Səhhət küçəsi 45A",1,40.396564,49.835395,1,0,0,0,0,,,,
117,Kənddən Şəhərə mağazası,kendden-shehere-magazasi-926,A,"Bakı şəhəri, Səbail rayonu, Nizami küçəsi 92",1,40.467469,49.842208,1,0,0,0,0,,,,
118,Abşeron 2 Hotel (Marriott Hotel),absheron-2-hotel-marriott-hotel-925,A,"Bakı şəhəri, Səbail rayonu, Azadlıq meydanı 674",1,40.374074,49.857329,1,0,0,0,0,,,,
119,PAŞA Həyat,pasha-heyat-924,A,"Bakı şəhəri, Nərimanov rayonu, Mayakovski küçəsi 15",1,40.401256,49.852004,1,1,0,0,0,,,,
120,Port Baku,port-baku-975,A,"Bakı şəhəri, Neftçilər prospekti 153",1,40.376674,49.86148,1,0,0,0,0,,,,
121,Four Season Hotel,four-season-hotel-949,A,"Bakı şəhəri, Neftçilər prospekti",1,40.39399442580431,49.794918430435146,1,0,0,0,0,,,,
122,Pera Group,pera-group-919,A,"Bakı şəhəri, Nizami rayonu, Keşlə qəsəbəsi",1,40.398622,49.901301,1,0,0,0,0,,,,
123,Excelsior Hotel,excelsior-hotel-918,A,"Bakı şəhəri, Heydər Əliyev prospekti 2",1,40.22541296146857,49.557599224086076,1,0,0,0,0,,,,
124,"SDN Plaza Prokon, Glensol",sdn-plaza-prokon-glensol-917,A,"Bakı şəhəri, Nərimanov rayonu, Ələsgər Qayıbov 12",1,40.4165,49.879314,1,0,0,0,0,,,,
125,Bulvar Otel,bulvar-otel-916,A,"Bakı şəhəri, Xəqani Rüstəmov küçəsi 4C",1,40.375525,49.884571,1,0,0,0,0,,,,
126,Baku Medical Plaza,baku-medical-plaza-914,A,"Bakı şəhəri, Babək prospekti 92N",1,40.394626,49.964683,1,0,0,0,0,,,,
128,Abşeron Hotel,absheron-hotel-910,A,"Bakı şəhəri, Səbail rayonu, Azadlıq meydanı 674",1,40.573780814588275,49.691219526838026,1,0,0,0,0,,,,
129,Paşa Sığorta,pasha-sigorta-909,A,"Bakı şəhəri, Səbail rayonu, M.Useynov 61",1,40.357849,49.834055,1,0,1,0,0,,,,
130,Əmlak Xidməti Məkanı,emlak-xidmeti-mekani-908,A,"Bakı şəhəri, Nizami rayonu, Xəlil Rza Ulutürk küçəsi, 2005 məhəllə",1,40.4155943140722,49.77061639505423,1,0,0,0,0,,,,
132,Neftçilər kart mərkəzi filialı,neftciler-kart-merkezi-filiali-906,A,"Bakı şəhəri, Nizami rayonu, R. Rüstəmov küçəsi, 44D",1,40.4095813,49.94246237,1,0,1,0,0,,,,
135,"AzərEnerji ASC, Səbail rayonu",azerenerji-asc-sebail-rayonu-901,A,"Bakı şəhəri, Səbail rayonu, Əbdül Əlizadə küçəsi 10",1,40.36956088,49.83935212,1,0,0,0,0,,,,
136,"Bravo Hipermarket, Koroğlu metrosu",bravo-hipermarket-koroglu-metrosu-900,A,"Bakı şəhəri, Heydər Əliyev prospekti",1,40.41886323,49.91431502,1,0,0,0,0,,,,
137,SOCAR Neft Kəmərləri İdarəsi,socar-neft-kemerleri-idaresi-899,A,"Bakı şəhəri, Xətai rayonu, Xocalı Prospekti 44",1,40.381973,49.870389,1,0,0,0,0,,,,
139,"Karmen, Xırdalan qəsəbəsi",karmen-xirdalan-qesebesi-896,A,"Şamaxı şossesi, Xırdalan qəsəbəsi",1,40.440216,49.757851,1,0,0,0,0,,,,
140,Çıraq Plaza Otel və Biznes Mərkəzi,ciraq-plaza-otel-ve-biznes-merkezi-895,A,"Bakı şəhəri, Tbilisi prospekti 490",1,40.58595016185355,49.667555907832835,1,0,0,0,0,,,,
141,Avromed Çobanzadə,avromed-cobanzade-894,A,"Bakı şəhəri, Çobanzadə küçəsi 238",1,40.402132,49.936896,1,0,0,0,0,,,,
142,Avromed Babək,avromed-babek-893,A,"Bakı şəhəri, Nizami Abdullayev 4",1,40.5873640064149,49.665076840888254,1,0,0,0,0,,,,
143,"McDonald's , F. X. Xoyski 830",mcdonalds-f-x-xoyski-830-892,A,"Bakı şəhəri, Fətəli Xan Xoyski küçəsi 830",1,40.399553,49.849735,1,0,0,0,0,,,,
144,"Norm Sement zavodu, Qaradağ qəsəbəsi",norm-sement-zavodu-qaradag-qesebesi-891,A,"Bakı şəhəri, Qaradağ qəsəbəsi, Salyan şosesi",1,40.38888306396962,49.86480072498418,1,0,0,0,0,,,,
145,"AzərConnect, Heydər Əliyev prospekti",azerconnect-heyder-eliyev-prospekti-890,A,"Bakı şəhəri, Heydər Əliyev prospekti 106A",1,40.164801785858344,49.46335457651243,1,0,0,0,0,,,,
146,"McDonalds, Nərimanov rayonu",mcdonalds-nerimanov-rayonu-889,A,"Bakı şəhəri, Nərimanov rayonu, Təbriz küç. 1959",1,40.342506,49.839482,1,0,0,0,0,,,,
147,"Bilgəh qəsəbəsi, Zaqulba şossesi",bilgeh-qesebesi-zaqulba-shossesi-888,A,"Bakı ş, Bilgəh qəsəbəsi, Zaqulba şossesi 272",1,40.587663,50.061683,1,0,0,0,0,,,,
148,Dəmirçi Plaza,demirci-plaza-887,A,"Bakı ş, Nizami rayonu, Xocalı prospekti 37",1,40.382958,49.871449,1,0,0,0,0,,,,
149,"Azterminalkompleks, Sabunçu rayonu",azterminalkompleks-sabuncu-rayonu-886,A,"Bakı ş, Sabunçu rayonu, Zabrat-Maştağa şossesi 3",1,40.500666,49.96987,1,0,0,0,0,,,,
150,"Optimal Electronics, Yasamal rayonu",optimal-electronics-yasamal-rayonu-885,A,"Bakı şəhəri, Yasamal rayonu, A.M.Şərifzadə 73",1,40.38917697205029,49.80417105634156,1,0,0,0,0,,,,
152,Azərbaycan Dövlət İqtisad Universiteti - Əsas korpus,azerbaycan-dovlet-iqtisad-universiteti-esas-korpus-884,A,"Bakı şəhəri, Səbail rayonu, İstiqlaliyyət küçəsi 61",1,40.36744,49.831941,1,0,1,0,0,,,,
153,Azərbaycan Dövlət İqtisad Universiteti - 4-cü korpus,azerbaycan-dovlet-iqtisad-universiteti-4-cu-korpus-883,A,"Bakı şəhəri, Nərimanov rayonu, H. Əliyev küçəsi 135A",1,40.404897,49.859765,1,0,0,0,0,,,,
154,Azərsu ASC,azersu-asc-880,A,"Yasamal rayonu, Heydər Əliyev prospekti 67",1,40.404547,49.806573,1,0,0,0,0,,,,
155,Bakı logistika mərkəzi (Abşeron Port),baki-logistika-merkezi-absheron-port-878,A,"Qaradağ rayonu, Lökbatan qəsəbəsi",1,40.326666,49.75998,1,0,1,0,0,,,,
156,Dövlət Miqrasiya Xidməti,dovlet-miqrasiya-xidmeti-876,A,"Bakı şəhəri, Binəqədi rayonu, Binəqədi şossesi 202",1,40.427924,49.840276,1,0,0,0,0,,,,
157,Bakı Dövlət Universiteti Əsas Girişi,baki-dovlet-universiteti-esas-girishi-875,A,"Bakı şəhəri, Yasamal rayonu, Z.Xəlilov küç. 23",1,40.373133,49.812139,1,0,0,0,0,,,,
158,"Dövlət Sərhəd Xidməti, Türkan qəsəbəsi",dovlet-serhed-xidmeti-turkan-qesebesi-874,A,"Bakı şəhəri, Xəzər rayonu, Türkan qəsəbəsi",1,40.363959,50.156772,1,1,0,0,0,,,,
159,Xarici Dillər Universiteti,xarici-diller-universiteti-870,A,"Bakı şəhəri, Nərimanov rayonu, Təbriz küç. 81",1,40.37899641287628,49.847006006925305,1,0,1,0,0,,,,
162,"Bravo filialı 2, (20 Yanvar m-sı yaxınlığı)",bravo-filiali-2-20-yanvar-m-si-yaxinligi-850,A,"Bakı şəh., Nəsimi rayonu, Tbilisi prospekti, məhəllə 3007 (20 Yanvar Bravo hipermarketinin daxilində)",1,40.401538531844544,49.810804473428526,1,0,0,0,0,,,,
163,Yasamal filialı,yasamal-filiali-849,A,"Bakı şəhəri, Yasamal rayonu, Landau küçəsi 6",1,40.37247909866426,49.8169990679617,1,0,0,0,0,,,,
164,Binəqədi Filialı,bineqedi-filiali-848,A,"Nəsimi rayonu, Asif Məhərrəmov küçəsi 174",1,40.40979,49.80797,1,0,0,1,0,,,,
165,24/7 Elektron Xidmət Mərkəzi N1,247-elektron-xidmet-merkezi-n1-846,A,"Nəsimi rayonu, Şamil Əzizbəyov  küçəsi 158",1,40.385146909740925,49.8281260712361,1,0,0,0,0,,,,
166,24/7 Elektron Xidmət Mərkəzi N1,247-elektron-xidmet-merkezi-n1-847,A,"Nəsimi rayonu, Şamil Əzizbəyov  küçəsi 158",1,40.414362,49.903507,1,0,0,0,0,,,,
167,Əhmədli filialı,ehmedli-filiali-841,A,"Xətai rayonu, Sarayevo küçəsi, 7Q",1,40.38656473,49.95714007,1,0,0,0,0,,,,
168,Əhmədli filialı,ehmedli-filiali-842,A,"Xətai rayonu, Sarayevo küçəsi, 7Q",1,40.38656325,49.95704281,1,1,0,0,0,,,,
169,24/7 Elektron Xidmət Mərkəzi N2,247-elektron-xidmet-merkezi-n2-837,A,"Nərimanov rayonu, A.Neymətulla küçəsi 54",1,40.405069,49.870432,1,0,0,0,0,,,,
170,24/7 Elektron Xidmət Mərkəzi N2,247-elektron-xidmet-merkezi-n2-840,A,"Nərimanov rayonu, A.Neymətulla küçəsi 54",1,40.40515751,49.87038923,1,0,0,0,0,,,,
171,"Qara Qarayev filialı, ATM 1",qara-qarayev-filiali-atm-1-839,A,"Nizami rayonu, Qara Qarayev prospekti 29",1,40.41790594,49.93479375,1,0,0,0,0,,,,
172,Qara Qarayev filialı,qara-qarayev-filiali-838,A,"Nizami rayonu, Qara Qarayev prospekti",1,40.41794279,49.93449966,1,0,0,0,0,,,,
173,İçərişəhər filialı,icerisheher-filiali-836,A,"Səbail rayonu, Bünyad Sərdarov küçəsi 14",1,40.50209073214195,49.99385592335687,1,0,0,0,0,,,,
176,Bakıxanov ticarət mərkəzi,bakixanov-ticaret-merkezi-129,A,Sabunçu ray. Ş.Kamilov  Küç 7,1,40.442168,50.092061,1,0,0,0,0,,,,
177,Sabunçu filialı,sabuncu-filiali-128,A,"Sabunçu rayonu, Bаkıхаnov qəsəbəsi, Ə. Ağayev küçəsi 41",1,40.432568,49.960577,1,0,1,0,0,,,,
179,8-ci mikrorayon filialı,8-ci-mikrorayon-filiali,A,"Bakı şəh Binəqədi rayonu, 8 mkr, İ. Dadaşov küçəsi 3158/3156-cı məhəllə",1,40.421959,49.842736,1,0,1,0,0,,,,
180,Binəqədi filialı,bineqedi-filiali-125,A,"Nəsimi rayonu, Asif Məhərrəmov küçəsi 174",1,40.409798,49.80772,1,0,1,1,0,,,,
182,"Kapital Bank, 28 May",kapital-bank-28-may-831,A,"Nəsimi rayonu, Füzuli küçəsi 71",1,40.37927579,49.845022,1,0,0,0,0,,,,
183,"""İQLİM"" EİM-in inzibati binası",iqlim-eim-in-inzibati-binasi-36,A,"Xəzər rayonu, Albalılıq dairəsi, keçid 1349",1,40.528107,50.07001628,1,0,0,0,0,,,,
184,"Kapital Bank, 28 May",kapital-bank-28-may-832,A,"Nəsimi rayonu, Füzuli küçəsi 71",1,40.37927579,49.845022,1,0,0,0,0,,,,
185,"Kapital Bank, 28 May",kapital-bank-28-may-834,A,"Nəsimi rayonu, Füzuli küçəsi 71",1,40.37927579,49.845022,1,0,0,0,0,,,,
186,"Bizim market, Bülbülə",bizim-market-bulbule-826,A,"Surxanı ray., Bülbülə qəs., Səttər Bəhlulzadə küç. 50",1,40.433029,49.983577,1,0,0,0,0,,,,
188,"Yeni Suraxanı qəsəbəsi, Market",yeni-suraxani-qesebesi-market-822,A,"Suraxanı rayonu, Yeni Suraxanı qəsəbəsi, 14 iyul küç.12 (Market)",1,40.37065958,49.83901017,1,0,0,0,0,,,,
189,"Nəsimi rayonu, Araz Market",nesimi-rayonu-araz-market-821,A,"Nəsimi rayonu, S.Vurğun 134 (Araz Market)",1,40.40128,49.831547,1,0,1,0,0,,,,
190,Azərbaycan Tibb Universiteti,azerbaycan-tibb-universiteti-820,A,"Nəsimi rayonu, S.Vurğun 167 (Azərbaycan Tibb Universiteti)",1,40.394917,49.833338,1,0,1,0,0,,,,
191,Bakıxanov filialı,bakixanov-filiali-817,A,Sabunçu ray. Bakıxanov qəs. S. Qocayev küç. 13,1,40.41672924431894,49.96523599558729,1,0,1,0,0,,,,
192,Xəzər  ray. lezzet şirniyyat evi,xezer-ray-lezzet-shirniyyat-evi-815,A,"Bakı şəh. Xəzər ray., Yesenin küç. 56 (“Ləzzət Cake House”)",1,40.487128,50.165265,1,0,1,0,0,,,,
193,Aqrolizinq ASC,aqrolizinq-asc-814,A,Sabunçu  ray.  Bakıxanov qəs.  B. Bünyadov küç. 12,1,40.427352449998786,49.939254852028874,1,0,0,0,0,,,,
194,Azərbaycan Dövlət Mədəniyyət və İncəsənət Universiteti,azerbaycan-dovlet-medeniyyet-ve-incesenet-universiteti-813,A,"Yasamal ray, İnşaatçılar pr. 39 (ADMİU)",1,40.379928,49.820669,1,0,0,0,0,,,,
195,Azərbaycan Dövlət Neft və Sənaye Universiteti,azerbaycan-dovlet-neft-ve-senaye-universiteti-812,A,"Nəsimi  ray, Dilarə Əliyeva küç. 227",1,40.377541,49.84729,1,0,0,0,0,,,,
196,Əmanətlərin Sığortalanması Fondu,emanetlerin-sigortalanmasi-fondu-811,A,Xətai  ray.  Babək pr. 16,1,40.388209,49.876007,1,0,0,0,0,,,,
197,"Araz market, Masazır qəsəbəsi",araz-market-masazir-qesebesi-810,A,"Abşeron rayonu, Masazır qəsəbəsi, Əliağa Vahid küçəsi",1,40.478849,49.75331,1,0,0,0,0,,,,
198,Bravo market,bravo-market-787,A,"Xətai rayonu, Babək prospekti ilə Nəcəfqulu Rəfiyev küçəsinin kəsişməsi",1,40.388256,49.87425,1,0,0,0,0,,,,
199,"Xüsusi Müalicə Sağlamlıq Kompleksi, Badamdar qəsəbəsi",xususi-mualice-saglamliq-kompleksi-badamdar-qesebesi-782,A,"Səbail rayonu, Badamdar qəsəbəsi, 31-ci Badamdar şossesi",1,40.353052,49.809492,1,0,0,0,0,,,,
202,"Araz market, Yeni Günəşli qəsəbəsi",araz-market-yeni-guneshli-qesebesi-774,A,"Suraxanı rayonu, Yeni Günəşli qəsəbəsi, V yaşayış massivi",1,40.383624,49.982603,1,0,0,0,0,,,,
204,"Makromart, Nərimanov",makromart-nerimanov-758,A,"Nərimanov rayonu, Ülvi Bünyadzadə küçəsi 17",1,40.38879,49.849727,1,0,0,0,0,,,,
205,Bilgah Beach Hotel,bilgeh-beach-hotel-972,A,"Xəzər rayonu, Bilgəh qəsəbəsi, Qələbə küçəsi 94",1,40.38631688178687,49.94808675204608,1,0,0,0,0,,,,
206,"Oba Market, M.Ə.Rəsulzadə qəs.",oba-market-meresulzade-qes-754,A,"Binəqədi rayonu, M.Ə. Rəsulzadə qəs., Arif Hüseynov küçəsi",1,40.436135,49.841961,1,0,0,0,0,,,,
207,Bakı Dövlət Universiteti,baki-dovlet-universiteti-751,A,"Yasamal rayonu, Z. Xəlilov küçəsi 23",1,40.374622,49.811245,1,0,0,0,0,,,,
210,Suraxanı Neft Əməliyyat Şirkəti,suraxani-neft-emeliyyat-shirketi-743,A,"Suraxanı rayonu, Əmircan qəsəbəsi, Xanlar Ələkbərov küçəsi 20",1,40.422035,50.004919,1,0,0,0,0,,,,
211,"Bolmart, Salamzadə küçəsi",bolmart-salamzade-kucesi-742,A,"Yasamal rayonu, Ə. Salamzadə küçəsi 1058",1,40.398564,49.815984,1,1,0,0,0,,,,
212,Veysəloğlu Şirkətlər Qrupu,veyseloglu-shirketler-qrupu-739,A,"Nizami rayonu, Keşlə qəsəbəsi, 2-ci Eninə küçəsi 2",1,40.403691,49.89388,1,0,0,0,0,,,,
213,Yasamal Rayon Mühafizə İdarəsi,yasamal-rayon-muhafize-idaresi-738,A,"Yasamal rayonu, Əsəd Əhmədov küçəsi 26B",1,40.39384,49.803719,1,0,0,0,0,,,,
214,Hökümət Evi,hokumet-evi-737,A,"Səbail rayonu, Üzəyir Hacıbəyli küşəsi 80",1,40.374136,49.85196,1,0,0,0,0,,,,
215,Balaxanı Neft Şirkəti,balaxani-neft-shirketi-736,A,"Sabunçu r-nu, Sabunçu qəsəbəsi, Seyid Hüseyn küçəsi 5",1,40.442584,49.945713,1,0,0,0,0,,,,
216,"Araz market, Hövsan",araz-market-hovsan-734,A,"Suraxanı rayonu, Hövsan qəsəbəsi, İlqar Əhlimanov küçəsi 225",1,40.360502,50.080063,1,0,0,0,0,,,,
217,Badamdar filialı,badamdar-filiali-731,A,Badamdar qəsəbəsi Mikayıl Müşfiq küçəsi 1C,1,40.40080875,49.853639,1,0,0,0,0,,,,
218,Azərbaycan avtomobil yolları dövlət agentliyi,azerbaycan-avtomobil-yollari-dovlet-agentliyi-730,A,"Binəqədi rayonu, Biləcəri qəsəbəsi, R. İsmayılov küçəsi 20/25",1,40.423698,49.802321,1,0,0,0,0,,,,
219,Vergilər Nazirliyi yanında Milli Gəlirlər Departamenti,vergiler-nazirliyi-yaninda-milli-gelirler-departamenti-728,A,"Nizami rayonu, Heydər Əliyev prospekti 105",1,40.41212,49.895439,1,0,0,0,0,,,,
220,Azercell Telekom MMC-Müştəri Xidmətləri,azercell-telekom-mmc-mushteri-xidmetleri-727,A,"Yasamal rayonu, Bəsti Bağırova küçəsi 2",1,40.383542,49.823647,1,0,0,0,0,,,,
221,Azərbaycan Memarlıq və İnşaat Universiteti,azerbaycan-memarliq-ve-inshaat-universiteti-726,A,"Yasamal rayonu, A. Sultanova küçəsi 11",1,40.369344,49.812799,1,0,0,0,0,,,,
222,Azərbaycan Dövlət Neft və Sənaye Universiteti giris 1,azerbaycan-dovlet-neft-ve-senaye-universiteti-giris-1-725,A,"Nəsimi rayonu, Azadliq pr 20",1,40.378149,49.848406,1,0,0,0,0,,,,
223,"A.Neymətulla küçəsi 23, Nərimanov",aneymetulla-kucesi-23-nerimanov-724,A,"Nərimanov rayonu, A.Neymətulla küçəsi 23",1,40.397882,49.877167,1,1,0,0,0,,,,
224,"Q.Abbasov küşəsi 13, Bayıl qəsəbəsi",qabbasov-kushesi-13-bayil-qesebesi-723,A,"Səbail rayonu, Bayıl qəsəbəsi, Qurban Abbasov küşəsi 13",1,40.469913,49.62663,1,0,0,0,0,,,,
225,"Tayqa ticarət mərkəzi, Binəqədi rayonu",tayqa-ticaret-merkezi-bineqedi-rayonu-722,A,"Binəqədi rayonu, 7-ci mkr., Abay Kunanbayev küçəsi 312",1,40.431738,49.851662,1,0,0,0,0,,,,
226,Məmmədli İcra nümayəndəliyi,memmedli-icra-numayendeliyi-719,A,Bakı ş. Abşeron ray. Məmmədli qəsəbəsi,1,40.51046924858607,49.91927396735568,1,0,0,0,0,,,,
227,ADA Universiteti,ada-universiteti-941,A,"Nərimanov rayonu, Əhmədbəy Ağaoğlu küçəsi 11",1,40.509253489080784,50.16296028936152,1,0,1,0,0,,,,
228,Bakı Beynəlxalq Dəniz Ticarət Limanı,baki-beynelxalq-deniz-ticaret-limani-714,A,"Qaradağ rayonu, Ələt qəsəbəsi",1,39.979957,49.441303,1,0,0,0,0,,,,
229,"Bravo Hipermarket, Əhmədli qəsəbəsi",bravo-hipermarket-ehmedli-qesebesi-713,A,"Xətai rayonu, Əhmədli qəsəbəsi, Ramiz Quliyev küçəsi 4",1,40.375128,49.945348,1,0,0,0,0,,,,
230,Azərbaycan Texniki Universiteti,azerbaycan-texniki-universiteti-712,A,"Yasamal rayonu, H. Cavid prospekti 25",1,40.369903,49.814939,1,0,1,0,0,,,,
231,Azərbaycan Dövlət Pedaqoji Universiteti,azerbaycan-dovlet-pedaqoji-universiteti-711,A,"Nəsimi rayonu, Ü. Hacıbeyli küçəsi 68",1,40.374269,49.84782,1,0,0,0,0,,,,
232,"Xəzər market, Qaraçuxur qəsəbəsi",xezer-market-qaracuxur-qesebesi-710,A,"Suraxanı rayonu, Qaraçuxur qəs., C. Qurbanov küçəsi, məh. 4057/4060",1,40.490556,49.75337,1,0,0,0,0,,,,
233,Koroğlu metro stansiyası,koroglu-metro-stansiyasi-709,A,"""Koroğlu"" metro stansiyası",1,40.420426,49.917966,1,0,0,0,0,,,,
234,"Makromart, Binəqədi rayonu",makromart-bineqedi-rayonu-705,A,"Binəqədi rayonu, Səttar Bəhlulzadə küçəsi 14",1,40.413083,49.828143,1,0,0,0,0,,,,
235,"Oba Market, Biləcəri qəsəbəsi",oba-market-bileceri-qesebesi-704,A,"Binəqədi rayonu, Biləcəri qəsəbəsi, məhəllə 50-5768",1,40.439613,49.810512,1,0,0,0,0,,,,
236,"Nursell market, Binəqədi rayonu",nursell-market-bineqedi-rayonu-699,A,"Binəqədi rayonu, Əcəmi Naxçıvani küçəsi 18A",1,40.415954,49.839832,1,1,0,0,0,,,,
237,"Qaradağ rayonu, Qobustan qəsəbəsi, Salyan şossesi Tabriz market",qaradag-rayonu-qobustan-qesebesi-salyan-shossesi-tabriz-market-698,A,"Qaradağ rayonu, Qobustan qəsəbəsi, Salyan şossesi",1,40.088136,49.416693,1,0,0,0,0,,,,
238,Qara Qarayev filialı,qara-qarayev-filiali-695,A,"Nizami rayonu, Qara Qarayev prospekti 29",1,40.417904,49.934665,1,0,1,0,0,,,,
239,"Holcim zavod, Sahil qəsəbəsi",holcim-zavod-sahil-qesebesi-693,A,"Bakı şəhəri, Sahil qəsəbəsi, Salyan Şossesi",1,40.251055,49.447787,1,0,0,0,0,,,,
260,"OBA market, Keşlə qəsəbəsi",oba-market-keshle-qesebesi-593,A,"Nizami rayonu, Keşlə qəsəbəsi, Mirzə Ələkbər Sabir küçəsi 33",1,40.394027,49.895175,1,0,0,0,0,,,,
261,"Bolmart, Nəsimi rayonu",bolmart-nesimi-rayonu-585,A,"Bakı şəhəri, Nəsimi rayonu, Səməd Vurğun küçəsi 75",1,40.384029,49.838089,1,0,1,0,0,,,,
262,"Poçt, Balaxanı qəsəbəsi",poct-balaxani-qesebesi-583,A,"Sabunçu r-nu, Balaxanı qəsəbəsi, M.Ə. Sabir küçəsi 1",1,40.45912294703117,49.92292304844001,1,1,0,0,0,,,,
263,"Favorit market, Neapol dairəsinin yanı",poct-5-lokbatan-qesebesi-65,A,"Bakı şəhəri, Xətai rayonu, Ə.Şıxlinski küçəsi 2942A",1,40.381038,49.965178,1,0,0,0,0,,,,
264,Gənclik Mall,genclik-mall-581,A,"Fətəli Xan Xoyski pr. 38, Gənclik Mall TM-nin -1-ci mərtəbəsi",1,40.399986,49.852837,1,0,1,0,0,,,,
265,ATM köşkü,qacqinkom-568,A,"Bakı şəh,Tbilisi pr. 129",1,40.384488,49.787804,1,1,0,0,0,,,,
266,"Qobu Park yaşayış massivi, Qaradağ rayonu",qobu-park-yashayish-massivi-qaradag-rayonu-192,A,"Bakı şəhəri, Qaradağ rayonu, Lökbatan Qaradağ yolu, 3-cü km",1,40.346505,49.749795,1,1,0,0,0,,,,
267,"Rahat market, Binə qəs",rahat-market-bine-qes-173,A,"Xəzər rayonu, Binə qəs., Sovxoz şossəsi 3-cü km",1,40.423066,50.103744,1,0,0,0,0,,,,
268,Yasamal filialı,yasamal-filiali-172,A,"Bakı şəhəri, Yasamal rayonu, Landau küçəsi 6",1,40.37247909866426,49.8169990679617,1,0,1,0,0,,,,
269,"Lukoyl YDM, Digah qəsəbəsi",lukoyl-ydm-digah-qesebesi-170,A,"Abşeron rayonu, Digah qəsəbəsi",1,40.484697,49.865566,1,0,0,0,0,,,,
270,"Rahat market, Maştağa qəsəbəsi",rahat-market-mashtaga-qesebesi-155,A,"Sabunçu rayonu, Maştağa qəsəbəsi, Nizami küçəsi 2B",1,40.528319,49.99792,1,0,0,0,0,,,,
271,Biləcəri dəmiryol stansiyası,bileceri-demiryol-stansiyasi-154,A,"Binəqədi rayonu, Biləcəri qəsəbəsi, Y. Hüseynov küçəsi 18",1,40.432045,49.808092,1,0,0,0,0,,,,
272,Nəsimi Rayon Mühafizə İdarəsi,nesimi-rayon-muhafize-idaresi-151,A,"Nəsimi rayonu, S.Vurğun küçəsi 112",1,40.393862,49.835105,1,0,0,0,0,,,,
273,"5 saylı ASAN xidmət mərkəzi, Nizami rayonu",5-sayli-asan-xidmet-merkezi-nizami-rayonu-149,A,"Nizami rayonu, H.Əliyev prospekti 115",1,40.417519,49.908408,1,0,0,0,0,,,,
274,Azərbaycan Dəmir Yolları QSC,azerbaycan-demir-yollari-qsc-148,A,"Nəsimi rayonu, D.Əliyeva küçəsi 230",1,40.37690989037636,49.835694071011645,1,0,0,0,0,,,,
275,24/7 Elektron Xidmət Mərkəzi N2,247-elektron-xidmet-merkezi-n2-147,A,"Nərimanov rayonu, A.Neymətulla küçəsi 54",1,40.40504312,49.87049888,1,0,1,0,0,,,,
276,"Füzuli market, Qaradağ rayonu",fuzuli-market-qaradag-rayonu-146,A,"Bakı şəhəri, Qaradağ rayonu, Ümid qəsəbəsi",1,40.198405,49.507495,1,0,0,0,0,,,,
277,İçərişəhər filialı,icerisheher-filiali-144,A,"Bakı şəh Səbail rayonu, Bünyad Sərdarov küçəsi 14",1,40.39319784998859,49.92725101157756,1,0,1,0,0,,,,
278,Gənclik filialı,genclik-filiali-143,A,"Nərimanov rayonu, Həsən Əliyev küçəsi, 889-cu məhəllə, ev 82",1,40.401972,49.848212,1,0,1,0,0,,,,
279,Bakıelektrikşəbəkə,bakielektrikshebeke-142,A,"Nərimanov rayonu, Ə. Qayıbov küçəsi 8",1,40.414386,49.880714,1,0,0,0,0,,,,
280,"Rahat market, Nizami rayonu",rahat-market-nizami-rayonu-140,A,"Nizami rayonu, R.Rüstəmov küçəsi ilə Şərifli küçəsinin kəsişməsi",1,40.578384,49.650996,1,0,0,0,0,,,,
281,"Rahat market, Müşfiqabad qəsəbəsi",rahat-market-mushfiqabad-qesebesi-139,A,"Qaradağ rayonu, Müşfiqabad qəsəbəsi, Bakı-Şamaxı yolunun 16-cı km",1,40.460218,49.656112,1,0,0,0,0,,,,
282,Sərham Market,serham-market-137,A,"Sabunçu rayonu, Bakıxanov qəsəbəsi, Y.Əliyev küçəsi 37",1,40.436693,49.959399,1,0,0,0,0,,,,
283,Park Bulvar,park-bulvar-136,A,"Səbail rayonu, Neftçilər prospekti 92",1,40.3907,49.834316,1,0,0,0,0,,,,
284,Qaradağ filialı,qaradag-rayon-filiali-130,A,"Qaradağ rayonu, Lökbatan qəsəbəsi, 28 May küçəsi",1,40.320967,49.737982,1,0,1,0,0,,,,
285,"Sarı Market, Biləcəri qəsəbəsi",sari-market-bileceri-qesebesi-124,A,"Bakı şəhəri, Binəqədi rayonu, Biləcəri qəsəbəsi",1,40.441074,49.832039,1,1,0,0,0,,,,
286,Əhmədli filialı,ehmedli-filiali-123,A,"Xətai rayonu, Sarayevo küçəsi, 7Q",1,40.38656917,49.95700391,1,0,1,0,0,,,,
287,Nərimanov filialı,nerimanov-rayon-filiali-121,A,"Nərimanov rayonu, Əliyar Əliyev küçəsi 15",1,40.401187,49.881676,1,0,1,0,0,,,,
288,Xətai filialı,xetai-filiali-120,A,"Xətai rayonu, S.Orucov küçəsi 12",1,40.379852,49.865684,1,0,1,0,0,,,,
289,Memar Əcəmi metro stansiyası,memar-ecemi-metro-stansiyasi-118,A,"""Memar Əcəmi"" metro stansiyası",1,40.410444,49.814553,1,0,0,0,0,,,,
290,"Araz market, BDU",araz-market-bdu-116,A,"Yasamal rayonu, Z. Xəlilov küçəsi 38A",1,40.37755760606438,49.81214311189182,1,0,0,0,0,,,,
291,"Araz market, Statistika komitəsi",araz-market-statistika-komitesi-115,A,"Yasamal rayonu, İnşaatçılar prospekti 31",1,40.383926,49.822778,1,0,1,0,0,,,,
292,"Araz market, Buzovna qəsəbəsi",araz-market-buzovna-qesebesi-114,A,"Xəzər rayonu, Buzovna qəsəbəsi H. Eyvazov küçəsi 47",1,40.516739,50.101837,1,0,0,0,0,,,,
293,"Araz market, Maştağa qəsəbəsi",araz-market-mashtaga-qesebesi-113,A,"Sabunçu rayonu, Maştağa qəsəbəsi, Zabrat-Maştağa yolu 27 KM",1,40.506678,49.97556,1,0,0,0,0,,,,
294,"Rahat market, Qala qəsəbəsi",rahat-market-qala-qesebesi-112,A,"Xəzər rayonu, Qala qəsəbəsi, Qala küçəsi 15",1,40.474614,50.109534,1,0,0,0,0,,,,
301,"Nicat market, Digah kəndi",nicat-market-digah-kendi,A,"Abşeron rayonu, Digah kəndi, H.Rəhmanov küçəsi 4A",2,40.492508,49.865331,1,0,0,0,0,,,,
302,"Qarabağ market, Ağcabədi rayonu",qarabag-market-agcabedi-rayonu-991,A,"Ağcabədi rayonu, 1 saylı qəsəbə",3,40.052522,47.40919,1,0,0,0,0,,,,
311,Ağcabədi filialı,agcabedi-rayon-filiali-388,A,"Ağcabədi rayon, F. Əlizadə küçəsi 5",3,40.052417,47.460606,1,0,0,0,0,,,,
334,Ağsu  filialı,agsu-rayon-filiali,A,"Ağsu rayon, H. Əliyev küçəsi 109",7,40.567021,48.402823,1,0,0,0,0,,,,
335,"Səncərədi kəndi, Market",senceredi-kendi-market-806,A,"Astara rayonu, Səncərədi kəndi",8,38.465206,48.810206,1,0,0,0,0,,,,
338,"Şahin Supermarket, Kijəbə kəndi",shahin-supermarket-kijebe-kendi-506,A,"Astara rayonu, Kijəbə kəndi",8,38.532666,48.806108,1,0,0,0,0,,,,
339,"Ərçivan kəndi, market",ercivan-kendi-market-505,A,"Astara rayonu, Ərçivan kəndi",8,38.499255,48.830995,1,0,0,0,0,,,,
340,"Astara, ""Yeni"" market",astara-yeni-market-504,A,"Astara şəhəri, H. Əliyev prospekti",8,38.464665179643276,48.87258932312793,1,0,0,0,0,,,,
341,"Pensər kəndi, ""Ballı"" market",penser-kendi-balli-market-503,A,"Astara rayonu, Pensər kəndi",8,38.602874,48.813277,1,0,0,0,0,,,,
342,Astara filialı,astara-rayon-filiali-502,A,"Astara şəhəri, H. Əliyev prospekti 71",8,38.45038,48.874116,1,0,0,0,0,,,,
343,Babək filialı,babekbabek-filiali-989,A,"Naxçıvan MR, Babək rayonu, H. Əliyev prospekti 26",9,39.158048,45.446225,1,0,0,0,0,,,,
345,"Cəhri kəndi, İcra Nümayəndəliyi",cehri-kendi-icra-numayendeliyi-237,A,"Naxçıvan MR, Babək rayonu, Cəhri kəndi",9,39.345470,45.415655,1,0,0,0,0,,,,
348,"Kərimbəyli qəsəbəsi, İcra Nümayəndəliyi",kerimbeyli-qesebesi-icra-numayendeliyi-176,A,"Naxçıvan MR, Babək rayonu, Kərimbəyli kəndi",9,39.255596,45.454198,1,0,0,0,0,,,,
349,Binə Ticarət Mərkəzi,bine-ticaret-merkezi-1012,A,Baki ş. Səlyan şosesi,1,40.409088503283584,49.84755501155645,1,0,0,0,0,,,,
350,Sedərək ticarət söbəsi,sederek-ticaret-sobesi-1011,A,Baki-Ələt-Qazax-Gürcustan yolu 1063,1,40.324262,49.779551,1,0,0,0,0,,,,
353,"""Zift"" Supermarket, Zaqatala şəhəri",zift-supermarket-zaqatala-sheheri-285,A,"Zaqatala şəhəri, Nizami küçəsi 35",68,41.631885,46.650748,1,0,0,0,0,,,,
354,"Bazarstore Supermarket, Zaqatala şəhəri",bazarstore-supermarket-zaqatala-sheheri-284,A,"Zaqatala şəhəri,  Molla Vəli Vidadi küçəsi 3",68,41.629665,46.643903,1,0,0,0,0,,,,
355,Zaqatala  filialı,zaqatala-filiali-283,A,"Zaqatala şəhəri, H. Əliyev prospekti 169",68,41.630385,46.639276,1,0,0,0,0,,,,
356,"Orxan Electronics, Zərdab rayonu",orxan-electronics-zerdab-rayonu-939,A,"Zərdab rayonu, Azərbaycan küçəsi 122",69,40.211689,47.709049,1,0,0,0,0,,,,
357,Sunny market,sunny-market-784,A,"Zərdab şəhəri, Samir Abdullayev 39A",69,40.630144,47.464821,1,0,0,0,0,,,,
358,Zərdab filialı,zerdab-filiali-700,A,"Zərdab rayonu, H.Əliyev prospekti 17",69,40.220648,47.710186,1,0,0,0,0,,,,
359,"""Aydan Telekom"", Zərdab şəhəri",aydan-telekom-zerdab-sheheri-343hlaz,A,"Zərdab şəhəri, H. Əliyev prospekti 1",69,40.22853227080032,47.7069480618074,1,0,0,0,0,,,,
404,"Araz market, Xırdalan şəh",araz-market-xirdalan-sheh-592,A,"Xırdalan şəh., 28 məhəllə, Mehdi Hüseynzadə küçəsi 7",26,40.455727,49.741585,1,0,1,0,0,,,,
405,Improtex Travel,improtex-travel-4,A,"Səbail rayonu, Nizami küçəsi 66",1,40.45351264656224,49.74019896505457,1,0,0,0,0,,,,
406,"Pətək market, Ramanı qəsəbəsi",etek-market-ramani-qesebesi-5,A,"Bakı şəhəri, Ramanı qəsəbəsi, Şuşa şəhərciyi",1,40.468528,50.01434,1,0,0,0,0,,,,
407,"""Azərbaycan"" Nəşriyyatı",azerbaycan-neshriyyati-6,A,"Yasamal rayonu, Mətbuat prospekti 529",1,40.36957232451372,49.809999398272126,1,0,0,0,0,,,,
408,"Zirə, C.Əliyev küçəsi, Market",zire-celiyev-kucesi-market-7,A,"Xəzər rayonu, Zirə qəsəbəsi, Cəlal Əliyev küçəsi",1,40.375522,50.285835,1,1,0,0,0,,,,
409,Xəzər filialı,xezer-filiali-12,A,"Xəzər rayonu, Şüvəlan qəsəbəsi, A.İldırım küçəsi 16",1,40.48635014192187,50.17038722017195,1,0,1,0,0,,,,
410,"Market, Zirə-Pirallahı yolu",market-zire-pirallahi-yolu-13,A,"Xəzər rayonu, Zirə-Pirallahı yolu",1,40.427625,50.208242,1,1,0,0,0,,,,
411,N.Nərimanov metro stansiyası,nnerimanov-metro-stansiyasi-15,A,"""Nəriman Nərimanov"" metro stansiyası",1,40.403011,49.871276,1,0,0,0,0,,,,
412,"Araz market, Binə qəsəbəsi",araz-market-bine-qesebesi-16,A,"Xəzər rayonu, Binə qəsəbəsi, Əli İsazadə küçəsi 5",1,40.449923,50.087725,1,1,0,0,0,,,,
413,"Albalı market, Buzovna qəsəbəsi",albali-market-buzovna-qesebesi-17,A,"Xəzər rayonu,Buzovna qəsəbəsi, M.Ə. Sabir küçəsi 22",1,40.517702,50.070758,1,0,0,0,0,,,,
414,"Favorit Market, Buzovna",favorit-market-buzovna-19,A,"Buzovna qəsəbəsi, Rasim İmanov küçəsi 22A",1,40.527141,50.097978,1,0,0,0,0,,,,
415,Əmlak Məsələləri Dövlət Komitəsi,emlak-meseleleri-dovlet-komitesi-21,A,"Xətai rayonu, Y.Səfərov küçəsi 2",1,40.383338,49.86429,1,0,0,0,0,,,,
416,"Market, Qala qəsəbəsi",market-qala-qesebesi-22,A,"Xəzər rayonu, Qala qəsəbəsi, Sülh küçəsi 36",1,40.439403,50.172426,1,1,0,0,0,,,,
417,Ali Hərbi Məktəb,ali-herbi-mekteb-18,A,"Xətai rayonu, Naximov küçəsi 128",1,40.343227,49.964301,1,0,0,0,0,,,,
418,"56 saylı Poçt şöbəsi, Türkan Türkan qəsəbəsi",56-sayli-poct-shobesi-turkan-turkan-qesebesi-24,A,"Xəzər rayonu, Türkan qəsəbəsi, Xanlar küçəsi 29",1,40.365394,50.22301,1,1,0,0,0,,,,
419,İnşaatçılar metro stansiyası,inshaatcilar-metro-stansiyasi-25,A,"""İnşaatçılar"" metro stansiyası",1,40.391697,49.80231,1,0,0,0,0,,,,
420,"Makromart, Bakıxanov qəs",makromart-bakixanov-qes-26,A,"Sabunçu rayonu, Bakıxanov qəs., S.Mehmandarov küçəsi 28",1,40.424289,49.959763,1,0,1,0,0,,,,
421,"İstiqlaliyyət küç, Nar mobile",istiqlaliyyet-kuc-nar-mobile-30,A,"Səbail rayonu, İstiqlaliyyət küçəsi 43",1,40.324262,49.779551,1,0,0,0,0,,,,
422,"Rahat market, Azadlıq pr.",rahat-market-azadliq-pr-31hl,A,"Binəqədi rayonu, S.S.Axundov küçəsi 3G",1,40.425792,49.843827,1,0,0,0,0,,,,
423,Nəsimi metro stansiyası,nesimi-metro-stansiyasi-33hl,A,"""Nəsimi"" metro stansiyası",1,40.424451,49.823987,1,0,0,0,0,,,,
424,Azadlıq Prospekti metro stansiyası,azadliq-prospekti-metro-stansiyasi-34hl,A,"""Azadlıq Prospekti"" metro stansiyası",1,40.425226,49.842249,1,0,0,0,0,,,,
425,"Sarı Market, Yeni Yasamal",sari-market-yeni-yasamal-38,A,"Yasamal rayonu, Y.Yasamal, Xiyabani 1",1,40.401026,49.797352,1,0,0,0,0,,,,
426,Mincivan ticarət mərkəzi,mincivan-ticaret-merkezi-40,A,"Xətai rayonu, M.Rüstəmov küçəsi 24/20",1,40.387380559181665,49.96159514550303,1,0,0,0,0,,,,
427,"Oba market, 4-cü mkr.",oba-market-4-cu-mkr-41,A,"Nəsimi rayonu, 20 Yanvar küçəsi 40B",1,40.4152,49.814193,1,1,0,0,0,,,,
428,Socar Petrolium,socar-petrolium-42,A,"Pirallahı qəsəbəqəsi, Məşədi Əzizbəyov küçəsi 22",1,40.458197,50.336303,1,0,0,0,0,,,,
429,"Hobby market, Əhmədli",hobby-market-ehmedli-46,A,"Xətai rayonu, Aşıq Ələsgər küçəsi 2",1,40.543586,49.662951,1,1,1,0,0,,,,
430,"Ballı market, Y.Günəşli qəsəbəsi",balli-market-yguneshli-qesebesi-47,A,"Yeni Günəşli qəsəbəsi, D yaşayış massivi, 12 nömrəli binanın arxası",1,40.376322,49.978083,1,1,0,0,0,,,,
431,"Favorit market, Həzi Aslanov",favorit-market-hezi-aslanov-48,A,"Xətai rayonu, Gəncə prospekti, məhəllə 29/42",1,40.367565,49.95975,1,0,0,0,0,,,,
432,Həzi Aslanov metro stansiyası,hezi-aslanov-metro-stansiyasi-49,A,"""Həzi Aslanov"" metro stansiyası",1,40.372059,49.953732,1,0,0,0,0,,,,
433,"Zığ yolu, market",zig-yolu-market-50,A,"Xətai rayonu, Zığ şossesi 29",1,40.36514227286476,49.94861383532852,1,0,0,0,0,,,,
434,Xalqlar Dostluğu metro stansiyası,xalqlar-dostlugu-metro-stansiyasi-51,A,"""Xalqlar Dostluğu"" metro stansiyası",1,40.398286,49.95152,1,0,0,0,0,,,,
435,"Bolmart, 9 mkr.",bolmart-9-mkr-52,A,"Binəqədi rayonu, M. Cəlal küşəsi 314",1,40.421608,49.815091,1,0,0,0,0,,,,
436,Neftçilər metro stansiyası,neftciler-metro-stansiyasi-55,A,Neftçilər metro stansiyası,1,40.411458,49.942292,1,0,0,0,0,,,,
437,Torpaqların Dövlət İdarə Etməsinin Təşkili Üzrə Dövlət Agentliyi,torpaqlarin-dovlet-idare-etmesinin-teshkili-uzre-dovlet-agentliyi-56,A,"Yasamal rayonu, S.Mehdiyev küçəsi 269",1,40.389774,49.815124,1,0,0,0,0,,,,
438,"Bizim Market, K.Günəşli qəsəbəsi",bizim-market-kguneshli-qesebesi-57,A,"Xətai rayonu, Kiçik Günəşli qəsəbəsi, İ.İsmayılov küçəsi 5C",1,40.362785,49.969885,1,0,0,0,0,,,,
439,"Araz market, Biləcəri qəsəbəsi",araz-market-bileceri-qesebesi-58,A,"Binəqədi rayonu, Biləcəri qəsəbəsi, A.Zeynallı küçəsi",1,40.437376,49.802286,1,0,0,0,0,,,,
440,"Binəqədi rayonu, Köşk",bineqedi-rayonu-koshk-61,A,"Binəqədi rayonu, Binəqədi qəsəbəsi, G. Ramazanov küçəsi 33",1,40.465868,49.828174,1,0,0,0,0,,,,
441,Kürdəxanı market,kurdexani-market-60,A,"Sabunçu rayonu, Kürdəxanı qəsəbəsi, M.Adil küçəsi 30",1,40.551918,49.919029,1,0,0,0,0,,,,
442,"Ballı market, Hövsan qəsəbəsi",balli-market-hovsan-qesebesi-62,A,"Suraxanı rayonu, Hövsan qəsəbəsi, Ə. Qasımov 15A",1,40.365221,50.074369,1,1,0,0,0,,,,
443,"Bağlar market, Qaraçuxur qəsəbəsi",baglar-market-qaracuxur-qesebesi-63,A,"Suraxanı rayonu, Qaraçuxur qəsəbəsi, Bağlar küçəsi 2",1,40.392193,49.971728,1,0,0,0,0,,,,
444,"Rahat market, Sabunçu rayonu",rahat-market-sabuncu-rayonu-64,A,"Sabunçu rayonu, Ə. Məmmədəliyev küçəsi 12",1,40.444369,49.943724,1,0,0,0,0,,,,
445,"Poçt 5, Lökbatan qəsəbəsi",poct-5-lokbatan-qesebesi-6,A,"Qaradağ rayonu, Lökbatan qəsəbəsi, N.Nərimanov küçəsi 16",1,40.331178,49.745858,1,1,0,0,0,,,,
446,"Beko mağazası, Sahil qəs.",beko-magazasi-sahil-qes-67,A,"Qaradağ rayonu, Sahil qəsəbəsi, Dostluq küçəsi 41",1,40.224607,49.577107,1,1,0,0,0,,,,
447,"Market, Ələt",market-elet-69,A,"Qaradağ rayonu,Ələt qəsəbəsi, E.İmanov küçəsi",1,39.955937,49.40448,1,0,0,0,0,,,,
448,"Zərgərpalan küç., Market",zergerpalan-kuc-market-70,A,"Yasamal rayonu, Zərgərpalan küçəsi 7",1,40.39005848,49.80290142,1,1,0,0,0,,,,
449,Buzovna pansionatı,buzovna-pansionati-73,A,"Xəzər rayonu, Buzovna qəsəbəsi, R. İmanov küçəsi 5",1,40.54241,50.086167,1,0,0,0,0,,,,
450,Qarabağ Market,qarabag-market-74,A,Abşeron ray. Mehdiabad qəs.Qarant şəhərciyi,1,40.339524,49.779235,1,0,0,0,0,,,,
451,Kimya Sənaye Parkı,kimya-senaye-parki-913,A,"Sumqayıt şəhəri, Kimyaçılar küçəsi 1",55,40.58748,49.622792,1,0,0,0,0,,,,
452,"Favorit market, Şamaxinka",favorit-market-shamaxinka-76,A,"Binəqədi rayonu, 9-cu mkr., Mir Cəlal küçəsi 57",1,40.418549,49.811117,1,0,0,0,0,,,,
453,"Bizim Market, Yasamal rayonu",bizim-market-yasamal-rayonu-78,A,"Yasamal rayonu, Yeni Yasamal, Ə. Əhmədov küçəsi 19",1,40.393885,49.794554,1,0,0,0,0,,,,
454,"Bizim Market, Badamdar qəsəbəsi",bizim-market-badamdar-qesebesi-79,A,"Səbail rayonu, Badamdar qəsəbəsi, R. İsgəndərov küçəsi 4A",1,40.339403,49.805693,1,0,0,0,0,,,,
455,"Premium market, Nəsimi rayonu",premium-market-nesimi-rayonu-80,A,"Nəsimi rayonu, Süleyman Rüstəm küçəsi 61",1,40.393708,49.839605,1,0,1,0,0,,,,
456,Dövlət Reyestr Xidməti,dovlet-reyestr-xidmeti-81,A,"Nərimanov rayonu, Ə.Əliyev küçəsi 13",1,40.400194,49.880111,1,0,0,0,0,,,,
457,Respublika Diaqnostika Mərkəzi,respublika-diaqnostika-merkezi-83,A,"Yasamal rayonu, Tbilisi prospekti 31/66",1,40.40008,49.810708,1,0,0,0,0,,,,
458,"Qara Qarayev filialı, ATM 2",qara-qarayev-filiali-atm-2-85,A,"Nizami rayonu, Qara Qarayev prospekti 29",1,40.391782402255956,49.86842031964507,1,0,0,0,0,,,,
459,"Grandmart, Q.Qarayev prospekti",grandmart-qqarayev-prospekti-86,A,"Nizami rayonu, 8 km, Q. Qarayev prospekti 46",1,40.414324,49.939808,1,0,0,0,0,,,,
460,"Favorit market, Space TV ilə üzbəüz",favorit-market-space-tv-ile-uzbeuz-1,A,"Yasamal rayonu, H.Cavid pr. 17",1,40.366834,49.816215,1,0,0,0,0,,,,
461,"28 Mall, 1-ci mərt.",28-mall-1-ci-mert-90,A,"Nəsimi rayonu, Füzuli küçəsi ilə Azadlıq prospektinin kəsişməsi",1,40.37899641287628,49.847006006925305,1,0,1,0,0,,,,
462,"Bizim Market, Binəqədi rayonu",bizim-market-bineqedi-rayonu-93,A,"Binəqədi rayonu, İ.Dadaşov küçəsi 60",1,40.413944,49.844063,1,0,0,0,0,,,,
463,1 saylı ASAN xidmət mərkəzi,1-sayli-asan-xidmet-merkezi-94,A,"Nəsimi rayonu, Həsən Əliyev küçəsi 36",1,40.399016,49.835053,1,0,0,0,0,,,,
464,"Madeyra mebel dükanı, Zabrat qəsəbəsi",madeyra-mebel-dukani-zabrat-qesebesi-95,A,"Sabunçu rayonu, Zabrat qəsəbəsi, Babək küçəsi 92A",1,40.47571988172781,49.949369144899215,1,0,0,0,0,,,,
465,"Hərbi hissə, Qaradağ rayonu",herbi-hisse-qaradag-rayonu-98,A,"Qaradağ rayonu, Puta qəsəbəsi",1,40.283864,49.673271,1,0,0,0,0,,,,
466,"Aptek, Biləcəri",aptek-bileceri-99,A,"Binəqədi rayonu, Binəqədi qəsəbəsi, Y. Hüseynov küçəsi, 13A",1,40.431633,49.799451,1,0,0,0,0,,,,
467,Penitensiar Xidmət,penitensiar-xidmet-104,A,"Nəsimi rayonu, Nizami küçəsi 114",1,40.377528,49.859036,1,0,0,0,0,,,,
468,"Qarabağ market, Müşfiqabad qəsəbəsi",qarabag-market-mushfiqabad-qesebesi-105,A,"Qaradağ rayonu, Müşfiqabad qəsəbəsi",1,40.473096,49.612583,1,0,0,0,0,,,,
469,4 saylı ASAN xidmət mərkəzi,4-sayli-asan-xidmet-merkezi-106,A,"Sabunçu rayonu, Bakıxanov qəsəbəsi, Sülh küçəsi 8 A",1,40.421448,49.969298,1,0,1,0,0,,,,
470,"Oba Market, Binəqədi rayonu",oba-market-bineqedi-rayonu-107,A,"Binəqədi rayonu, Məsud Davudoğlu küçəsi 6B",1,40.4231289725337,49.8344824349319,1,0,0,0,0,,,,
471,Bakı Beynəlxalq Avtovağzalı,baki-beynelxalq-avtovagzali-108,A,"Binəqədı rayonu, Biləcəri qəs., Bakı-Sumqayıt şossesi, 3-cü km",1,40.418357,49.797663,1,0,0,0,0,,,,
472,"""Aztelekom İB""",aztelekom-ib-109,A,"Yasamal rayonu,Tbilisi prospekti, 3166-cı məhəllə",1,40.402479,49.808387,1,0,0,0,0,,,,
473,Əhmədli metro stansiyası,ehmedli-metro-stansiyasi-117,A,"""Əhmədli"" metro stansiyası",1,40.385949,49.953998,1,0,0,0,0,,,,
475,"ASAN Xidmət, Sumqayıt",asan-xidmet-sumqayit-956,A,Sumqayıt şəhəri,55,40.587351,49.664861,1,0,0,0,0,,,,
476,Delta Qrup C.O. MMC,delta-qrup-co-mmc-732,A,"Sumqayıt şəhəri, Sənayə zonası, Sülh küçəsi, 76-cı məhəllə",55,40.380670760241,49.88771437259052,1,0,0,0,0,,,,
477,Bakı Mühəndislik Universiteti,baki-muhendislik-universiteti-716,A,"Xırdalan şəhəri, Həsən Əliyev küçəsi 120",26,40.47646,49.726354,1,0,0,0,0,,,,
478,"Poçt, Xırdalan şəhəri",poct-xirdalan-sheheri-160,A,"Xırdalan şəhəri, M.Ə.Rəsulzadə küçəsi 5",26,40.381221,49.841364,1,0,0,0,0,,,,
479,"Makromart, Xırdalan şəhəri",makromart-xirdalan-sheheri-166,A,"Xırdalan şəhəri, H.Əliyev prospekti 167",26,40.461222,49.727693,1,0,0,0,0,,,,
480,"Bizim Market, Xırdalan şəhəri",bizim-market-xirdalan-sheheri-718,A,"Xırdalan şəh., 27-ci məhəllə, Qalubiyyə küçəsi 3/14",26,40.454454,49.745091,1,0,0,0,0,,,,
481,Abşeron  filialı,absheron-rayon-filiali-843,A,"Abşeron rayonu, Xırdalan şəhəri, Qəzənfər Musabəyov küçəsi 22",26,40.45274781,49.75126113,1,0,0,0,0,,,,
482,Abşeron  filialı,absheron-rayon-filiali-169,A,"Abşeron rayonu, Xırdalan şəhəri, Qəzənfər Musabəyov küçəsi 22",26,40.45269819,49.75134388,1,0,1,0,0,,,,
483,Abşeron  filialı,absheron-rayon-filiali-844,A,"Abşeron rayonu, Xırdalan şəhəri, Qəzənfər Musabəyov küçəsi 22",26,40.45271,49.751311,1,0,0,0,0,,,,
484,Xızı filialı,xizi-filiali-188,A,"Xızı şəhəri, H.Əliyev prospekti 245",27,40.910855,49.074008,1,0,0,0,0,,,,
485,"Market, Xızı rayonu, Giləzi qəsəbəsi",market-xizi-rayonu-gilezi-qesebesi-189,A,"Xızı rayonu, Giləzi qəsəbəsi, M.Qafarov küçəsi",27,40.868661,49.340957,1,0,0,0,0,,,,
486,Sumqayıt filialı,sumqayit-filiali-191,A,"Sumqayıt şəhəri, C. Cabbarlı küçəsi 1 (40-cı məhəllə)",55,40.580124,49.672601,1,0,1,0,0,,,,
487,Sumqayıt filialı,sumqayit-filiali-845,A,"Sumqayıt şəhəri, C. Cabbarlı küçəsi 1 (40-cı məhəllə)",55,40.58027947,49.6727573,1,0,0,0,0,,,,
488,"""Miss Leyla"" geyim mağazası, Sumqayıt şəhəri",miss-leyla-geyim-magazasi-sumqayit-sheheri-193,A,"Sumqayıt şəhəri,1-ci mkr., N. Nərimanov küçəsi 29/12",55,40.588893,49.676828,1,1,0,0,0,,,,
489,Qartal Tikinti Firması,qartal-tikinti-firmasi-194,A,"Sumqayıt şəhəri, Koroğlu prospekti, 48-ci məhəllə",55,40.560583,49.695148,1,0,0,0,0,,,,
490,"""Liman"" Tibb mərkəzi",liman-tibb-merkezi-195,A,"Sumqayıt şəhəri, 6-cı mkr., S.Vurğun küçəsi 35A",55,40.580617,49.689803,1,0,0,0,0,,,,
491,Bazarstore,bazarstore-877,A,"Sumqayıt şəhəri, Bakı küç 47",55,40.575677,49.679396,1,0,1,0,0,,,,
492,"Qayalı market, 13-cü mkr",qayali-market-13-cu-mkr-753,A,"Sumqayıt şəhəri, 13-cü mkr., ev 55",55,40.568424,49.692415,1,1,0,0,0,,,,
493,Corat qəsəbə bələdiyyəsi,corat-qesebe-belediyyesi-198,A,"Sumqayıt şəhəri, Corat qəsəbəsi, Sülh küçəsi 246",55,40.572788,49.708526,1,0,0,0,0,,,,
494,408 saylı Hərbi Hissə,408-sayli-herbi-hisse-931,A,"Sumqayıt şəhəri, H.Z.Tağıyev qəsəbəsi",55,40.609182,49.543803,1,0,0,0,0,,,,
495,"Qayalı market, H.Z.Tağıyev qəsəbəsi",qayali-market-hztagiyev-qesebesi-199,A,"Sumqayıt şəhəri, H.Z. Tağıyev qəsəbəsi",55,40.619023,49.562511,1,0,0,0,0,,,,
496,Sumqayıt Baş Gömrük İdarəsi,sumqayit-bash-gomruk-idaresi-202,A,"Sumqayıt şəhəri, Sülh prospekti 1",55,40.572358,49.636074,1,0,0,0,0,,,,
497,"Sumqayıt şəhəri, Şöbə 10",sumqayit-sheheri-shobe-10-203,A,"Sumqayıt şəhəri, 3-cü mkr., H. Əliyev pr. 22/54",55,40.61993566,49.5632234,1,1,0,0,0,,,,
498,"""Çörəkçi"" firma mağazası, 5-ci mkr",corekci-firma-magazasi-5-ci-mkr-204,A,"Sumqayıt şəhəri, 5-ci mkr., ev 55A, sahə 10",55,40.56542,49.69659,1,0,0,0,0,,,,
499,"Qayalı market, 11-ci mkr",qayali-market-11-ci-mkr-205,A,"Sumqayıt şəhəri, 11-ci mkr., Şəmsi Bədəlbəyli küçəsi",55,40.569925,49.675325,1,0,0,0,0,,,,
500,"İnşaatçılar qəs., Qubadlı İcra Hakimiyyətinin yanı",inshaatcilar-qes-qubadli-icra-hakimiyyetinin-yani-206,A,"Sumqayıt şəhəri, İnşaatçılar qəsəbəsi, Koroğlu prospekti",55,40.594106,49.651883,1,0,0,0,0,,,,
501,Qubadlı filialı,qubadli-filiali-207,A,"Sumqayıt şəhəri, 17-ci məhəllə, H.Əliyev prospekti 11/38, sahə 7",55,40.590459,49.66699,1,0,1,0,0,,,,
502,Elmlər Akademiyası metro stansiyası,elmler-akademiyasi-metro-stansiyasi-10,A,"""Elmlər Akademiyası"" metro stansiyası",1,40.375211,49.815511,1,0,0,0,0,,,,
503,"Neptun Hipermarket, Xırdalan şəh",neptun-hipermarket-xirdalan-sheh-701,A,"Xırdalan şəh., Binəqədi şosesi, Respublika DYP İdarəsinin yanı",26,40.44803,49.777329,1,0,0,0,0,,,,
504,Sumqayıt Texnologiyalar Parkı,sumqayit-texnologiyalar-parki-966,A,"Sumqayıt şəhəri, H.Z.Tağıyev qəsəbəsi",55,40.602117,49.597468,1,0,0,0,0,,,,
505,"Naxçıvan, İlham Əliyev adına Olimpiya İdman Kompleksi",naxcivan-ilham-eliyev-adina-olimpiya-idman-kompleksi-174,A,"Naxçıvan şəhəri, Ə. Əliyev küçəsi 1",45,39.220826,45.412301,1,0,0,0,0,,,,
506,"Naxçıvan şəhər, 1 saylı Hərbi şəhərcik, Ticarət mərkəzi",naxcivan-sheher-1-sayli-herbi-shehercik-ticaret-merkezi-177,A,"Naxçıvan şəhər, 1 saylı Hərbi şəhərcik, Ticarət mərkəzi",45,39.218664925527506,45.40698871524697,1,0,0,0,0,,,,
507,Azəbaycan Milli Elmlər Akademiyası Naxçıvan Bölməsi,azebaycan-milli-elmler-akademiyasi-naxcivan-bolmesi-178,A,"Naxçıvan şəhəri, H.Əliyev prospekti 76",45,39.219572,45.407868,1,0,0,0,0,,,,
508,"Naxçıvan, NDU Tələbə şəhərciyi",naxcivan-ndu-telebe-sheherciyi-180,A,"Naxçıvan şəhəri, Universitet şəhərciyi",45,39.225207,45.406018,1,0,0,0,0,,,,
509,"""Kapital Bank"" ASC-nin Naxçıvan MR Baş İdarəsi, 1 saylı kassa",kapital-bank-asc-nin-naxcivan-mr-bash-idaresi-1-sayli-kassa-181,A,"Naxçıvan şəhəri, H. Əliyev prospekti 16",45,38.903982,46.019922,1,0,0,0,0,,,,
510,"Çəmən supermarket, Babək məhəlləsi",cemen-supermarket-babek-mehellesi-580,A,"Naxçıvan şəhəri, Babək məhəlləsi 2",45,39.193308,45.410215,1,0,0,0,0,,,,
511,"Naxçıvan, ""Naxçıvan"" market",naxcivan-naxcivan-market-183,A,"Naxçıvan şəhəri, Təbriz küçəsi, 1",45,39.25289548988086,45.4273127805319,1,0,0,0,0,,,,
512,"Naxçıvan şəhəri, İnternet mərkəzi",naxcivan-sheheri-internet-merkezi-184,A,"Naxçıvan şəhəri, Atatürk küçəsi 2",45,39.212638,45.406276,1,0,0,0,0,,,,
513,"Naxçıvan, ""Sizin"" market",naxcivan-sizin-market-185,A,"Naxçıvan şəhəri, H.Əliyev prospekti 19",45,39.213774,45.407909,1,0,0,0,0,,,,
514,"Naxçıvan, ""Cahan"" Ticarət Mərkəzi",naxcivan-cahan-ticaret-merkezi-796,A,"Naxçıvan şəhəri, Ə. Əliyev küçəsi 20",45,39.206108,45.424892,1,0,0,0,0,,,,
515,Naxçıvan filialı,nakhichevannaxcivan-filiali-1008,A,"Naxçıvan şəhəri, İstiqlal küçəsi 85",45,39.212427,45.41017225,1,0,0,0,0,,,,
516,"Qaraçuq qəsəbəsi, İcra Nümayəndəliyi",qaracuq-qesebesi-icra-numayendeliyi-187,A,"Naxçıvan şəhəri, Qaraçuq kəndi",45,39.187877,45.378305,1,0,0,0,0,,,,
517,Detal Aluminium zavodu,detal-aluminium-zavodu-208,A,"Gəncə şəhəri, Yevlax şossesi 53",20,40.734034,46.862837,1,0,0,0,0,,,,
519,"Gəncə, Təbriz Market",gence-tebriz-market-210,A,"Gəncə şəhəri, Təbriz küçəsi 16",20,40.672257,46.340705,1,0,0,0,0,,,,
520,"Gəncə şəhəri, Orxan market",gence-sheheri-orxan-market-211,A,"Gəncə şəhəri, Heydər Əliyev prospekti 22",20,40.709507,46.366796,1,0,0,0,0,,,,
521,"Gəncə şəhəri, ""Gold Əminə"" market",gence-sheheri-gold-emine-market-222,A,"Gəncə şəhəri, Atatürk prospekti 10",20,40.68919828156471,46.38310343370113,1,0,0,0,0,,,,
522,"Gəncə, Mərkəzi kitabxana",gence-merkezi-kitabxana-214,A,"Gəncə şəhəri, Nizami küçəsi 81",20,40.680955,46.362315,1,0,0,0,0,,,,
523,"Gəncə, Fama market",gence-fama-market-215,A,"Gəncə şəhəri, Azərbaycan Əsgəri küçəsi",20,40.718738,46.353777,1,0,0,0,0,,,,
524,"Gülüstan qəsəbəsi, Əminə market",gulustan-qesebesi-emine-market-763,A,"Gəncə şəhəri, Gülüstan qəsəbəsi, AKTA-nın 6 saylı yataqxanası",20,40.628613,46.343316,1,0,0,0,0,,,,
525,"Gəncə, Əminə market",gence-emine-market-218,A,"Gəncə şəhəri, Ə.Mehmandarov küçəsi",20,40.686381,46.334536,1,0,0,0,0,,,,
526,"Gəncə, Azərbaycan Dövlət Aqrar Universiteti",gence-azerbaycan-dovlet-aqrar-universiteti-219,A,"Gəncə şəhəri, Ozan küçəsi 102",20,40.669301,46.346841,1,0,0,0,0,,,,
527,"Gəncə, Bazarstore Supermarket",gence-bazarstore-supermarket-220,A,"Gəncə şəhəri, N. Nərimanov prospekti 76",20,40.674755,46.370005,1,0,0,0,0,,,,
528,"Gəncə, 22 saylı poçt şöbəsi",gence-22-sayli-poct-shobesi-221,A,"Gəncə şəhəri, Azərbaycan küçəsi 38",20,40.68078169812552,46.322023813527565,1,0,0,0,0,,,,
529,"Sevinc qəsəbəsi, market",sevinc-qesebesi-market-212,A,"Gəncə şəhəri, Sevinc qəsəbəsi",20,40.44534418520137,46.63518298781769,1,0,0,0,0,,,,
530,"Gəncə, “Fariz” MMC (Xanımın Maqazini)",gence-fariz-mmc-xanimin-maqazini-223,A,"Gəncə şəhəri, Şah İsmayıl Xətai küçəsi 84",20,40.686394,46.387137,1,0,0,0,0,,,,
531,"Gülüstan qəsəbəsi, Sakit market",gulustan-qesebesi-sakit-market-589,A,"Gəncə şəhəri, Gülüstan qəsəbəsi",20,40.638959,46.344042,1,0,0,0,0,,,,
532,Kəpəz filialı,kepez-filiali-226,A,"Gəncə şəhəri, Kəpəz rayonu, N.Gəncəvi prospekti 24B",20,40.67869117691602,46.38076257480987,1,0,0,0,0,,,,
533,"Gəncə şəhəri, Market (Totanlı küçəsi)",gence-sheheri-market-totanli-kucesi-227,A,"Gəncə şəhəri, Totanlı küçəsi 2",20,40.661102,46.340475,1,0,0,0,0,,,,
534,"Kəpəz rayonu, market",kepez-rayonu-market-228,A,"Gəncə şəhəri, Kəpəz rayonu, Yeni qəsəbə 2",20,40.665521,46.453036,1,0,0,0,0,,,,
535,"Nur market, Kəpəz rayonu, Sadıllı qəsəbəsi",nur-market-kepez-rayonu-sadilli-qesebesi-764,A,"Gəncə şəhəri, Kəpəz rayonu, Sadıllı qəs., məhəllə e-3, sahə 19",20,40.708537,46.355603,1,0,0,0,0,,,,
536,"Yeni Kəlbəcər qəsəbəsi, Ekonom market",yeni-kelbecer-qesebesi-ekonom-market-217,A,"Gəncə şəhəri, Yeni Kəlbəcər qəsəbəsi",20,40.684356,46.418098,1,0,0,0,0,,,,
537,"Gəncə filialı, 24 7 Elektron Xidmət Mərkəzi",gence-filiali-24-7-elektron-xidmet-merkezi-807,A,"Gəncə şəhəri, Cavadxan küçəsi 24",20,40.675464,46.360352,1,0,1,0,0,,,,
538,"Gəncə filialı, 24 7 Elektron Xidmət Mərkəzi",gence-filiali-24-7-elektron-xidmet-merkezi-851,A,"Gəncə şəhəri, Cavadxan küçəsi 24",20,40.67540329,46.36036991,1,0,0,0,0,,,,
539,"Gəncə Dövlət Unversiteti, Gəncə şəhəri",gence-dovlet-unversiteti-gence-sheheri-862,A,"Gəncə şəhəri, Bayraq meydanı 225",20,40.677623,46.369374,1,0,0,0,0,,,,
540,Goranboy filialı,goranboy-filiali-365,A,"Goranboy şəhəri, H. Əliyev prospekti 9",21,40.607796,46.788992,1,0,0,0,0,,,,
541,"Bolmart, Gəncə şəhəri",bolmart-gence-sheheri-863,A,"Gəncə şəhəri, Xətai prospekti ilə Ü.Hacıbəyov kəsişməsi",20,40.697944,46.373645,1,0,0,0,0,,,,
542,"Dəliməmmədli şəhəri, Ticarət mərkəzi",delimemmedli-sheheri-ticaret-merkezi-367,A,"Goranboy rayonu, Dəliməmmədli şəhəri, T. Əkbəri küçəsi",21,40.69862,46.566165,1,0,0,0,0,,,,
543,"Borsunlu kəndi, ""Final"" market",borsunlu-kendi-final-market-368,A,"Goranboy rayonu, Borsunlu kəndi",21,40.648815,46.666155,1,0,0,0,0,,,,
544,"Qızılhacılı qəsəbəsi, ""İdeal"" market",qizilhacili-qesebesi-ideal-market-369,A,"Goranboy rayonu, Qızılhacılı qəsəbəsi, H.Aslanov küçəsi",21,40.574636,46.849581,1,0,0,0,0,,,,
545,"Goranboy, Ticarət mərkəzi (S. Civəzadə küçəsi)",goranboy-ticaret-merkezi-s-civezade-kucesi-370,A,"Goranboy şəhəri, S. Civəzadə küçəsi",21,40.603654,46.784288,1,0,0,0,0,,,,
546,"Xoylu kəndi, market",xoylu-kendi-market-372,A,"Goranboy rayonu, Xoylu kəndi",21,40.647504,46.532156,1,0,0,0,0,,,,
547,"Səfikürd kəndi, Ticarət mərkəzi",sefikurd-kendi-ticaret-merkezi-373,A,"Goranboy rayonu, Səfikürd kəndi",21,40.541866,46.766865,1,0,0,0,0,,,,
548,"Xanqərvənd kəndi, Ticarət mərkəzi",xanqervend-kendi-ticaret-merkezi-374,A,"Goranboy rayonu, Xanqərvənd kəndi",21,40.500213,46.90601,1,0,0,0,0,,,,
549,"Aşağı Ağcakənd qəsəbəsi, ""Ağcakənd"" market",ashagi-agcakend-qesebesi-agcakend-market-375,A,"Goranboy rayonu, Aşağı Ağcakənd qəsəbəsi",21,40.420993,46.570486,1,0,0,0,0,,,,
550,"Gəncə Mall, Gəncə şəhəri",gence-mall-gence-sheheri-881,A,Gəncə şəhəri. Heydər Əliyev prospekti ilə Həsən Əliyev küçəsinin kəsişməsi,21,40.600975,46.776794,1,0,0,0,0,,,,
551,"Goranboy, Ticarət Mərkəzi (H. Əliyev prospekti 15)",goranboy-ticaret-merkezi-h-eliyev-prospekti-15-366,A,"Goranboy şəhəri, H. Əliyev prospekti 15",21,40.599041,46.781947,1,0,0,0,0,,,,
552,Gəncə Mall,gence-mall-962,A,"Gəncə şəhəri, Heydər Əliyev prospekti 433",21,40.714039254353004,46.36677675982596,1,0,0,0,0,,,,
553,Naftalan Hotel,naftalan-hotel-961,A,"Naftalan şəhəri, Şirvan prospekti 34",44,40.69667339916367,46.32905536934971,1,0,0,0,0,,,,
554,Naftalan şəhər filialı,naftalan-sheher-filiali-401,A,"Naftalan şəhəri, H. Əliyev prospekti 11",44,40.505818,46.813953,1,0,0,0,0,,,,
555,"Naftalan, Ticarət Mərkəzi",naftalan-ticaret-merkezi-402,A,"Naftalan şəhəri, R. Zülfüqarov küçəsi 95",21,40.507587,46.815581,1,0,0,0,0,,,,
556,"Göygöl rayonu, ""Əminə"" Market",goygol-rayonu-emine-market-535,A,"Göygöl şəhəri, H. Əliyev prospekti 15",23,40.591726,46.320296,1,0,0,0,0,,,,
557,"Göygöl, Tikinti materialları mağazası",goygol-tikinti-materiallari-magazasi-536,A,"Göygöl şəhəri, A. Kazımov küçəsi",23,40.584385,46.327204,1,0,0,0,0,,,,
558,"Çinar Otel, Naftalan",cinar-otel-naftalan-923,A,Naftalan şəhəri,44,40.500193,46.819889,1,0,0,0,0,,,,
559,Göygöl filialı,goygol-rayon-filiali-538,A,"Göygöl şəhəri, H.Əliyev prospekti 45",23,40.588908,46.318286,1,0,0,0,0,,,,
560,Daşkəsən filialı,dashkesen-rayon-filiali-539,A,"Daşkəsən şəhəri, M. Əsədov küçəsi 14",17,40.521369,46.082766,1,0,0,0,0,,,,
561,"""Ceyhun Petrol"" YDM, Daşkəsən rayonu",ceyhun-petrol-ydm-dashkesen-rayonu-540,A,"Daşkəsən rayonu ,T. İsmayılov küçəsi",17,40.517166,46.089504,1,0,0,0,0,,,,
562,"AzərGold, Çovdar kəndi",azergold-covdar-kendi-997,A,"Daşkəsən rayonu, Çovdar kəndi",17,40.596002,46.091179,1,0,1,0,0,,,,
563,Samux filialı,samux-rayon-filiali-542,A,"Samux rayonu, Nəbiağalı qəsəbəsi, Nəriman Nərimanov küçəsi 9",52,40.765613,46.404742,1,0,0,0,0,,,,
564,"YDM, Qarayeri kəndi",ydm-qarayeri-kendi-543,A,"Samux rayonu, Qarayeri kəndi",52,40.786262,46.329482,1,0,0,0,0,,,,
565,"Ordubad şəhəri, ""Emin"" market",ordubad-sheheri-emin-market-238,A,"Naxçıvan MR, Ordubad şəhəri, H. Əliyev prospekti",48,38.905476,46.019493,1,0,0,0,0,,,,
566,"Ordubad, Ticarət mərkəzi (Mərkəzi Bazarın yanı)",ordubad-ticaret-merkezi-merkezi-bazarin-yani-794,A,"Naxçıvan MR, Ordubad şəhəri, H. Əliyev prospekti",48,38.903586,46.016952,1,0,0,0,0,,,,
567,Culfa rayon filialı,culfa-rayon-filiali-239,A,"Naxçıvan MR, Culfa şəhəri, H. Əliyev prospekti 43",16,38.956239,45.633797,1,0,0,0,0,,,,
568,"Mərkəzi Xəstəxanası, Culfa şəhəri",merkezi-xestexanasi-culfa-sheheri-240,A,"Naxçıvan MR, Culfa şəhəri, Elşad Nağıyev küçəsi 27",16,38.955319,45.634662,1,0,0,0,0,,,,
569,"Yaycı kəndi, İcra Nümayəndəliyi",yayci-kendi-icra-numayendeliyi-241,A,"Naxçıvan MR, Culfa rayonu, Yaycı kəndi",16,38.937283,45.730275,1,0,0,0,0,,,,
570,"Əbrəqunus kəndi, İcra Nümayəndəliyi",ebrequnus-kendi-icra-numayendeliyi-242,A,"Naxçıvan MR, Culfa rayonu, Əbrəqunus kəndi",16,39.13801,45.636297,1,0,0,0,0,,,,
571,"""Bahar"" kinoteatrı, Şərur",bahar-kinoteatri-sherur-243,A,"Naxçıvan MR, Şərur şəhəri, H.Əliyev prospekti 44B",61,39.557025,44.985193,1,0,0,0,0,,,,
572,Şərur Arxiv İdarəsi,sherur-arxiv-idaresi-244,A,"Naxçıvan MR, Şərur şəhəri, Şəhriyar küçəsi",61,39.55283,44.978755,1,0,0,0,0,,,,
573,"Aşağı Aralıq kəndi, İcra Nümayəndəliyi",ashagi-araliq-kendi-icra-numayendeliyi-245,A,"Naxçıvan MR, Şərur rayonu, Aşağı Aralıq kəndi",61,39.531455,45.01396,1,0,0,0,0,,,,
574,"Mahmudkənd kəndi, İcra Nümayəndəliyi",mahmudkend-kendi-icra-numayendeliyi-246,A,"Naxçıvan MR, Şərur rayonu, Mahmudkənd kəndi",61,39.579013,45.027443,1,0,0,0,0,,,,
575,"Vərməziyar kəndi, İcra Nümayəndəliyi",vermeziyar-kendi-icra-numayendeliyi-248,A,"Naxçıvan MR, Şərur rayonu, Vərməziyar kəndi",57,39.490402,45.003226,1,0,0,0,0,,,,
576,Şahbuz rayon filialı,shahbuz-rayon-filiali-249,A,"Şahbuz şəhəri, H.Əliyev prospekti 15",57,39.404974,45.568689,1,0,0,0,0,,,,
577,"Şahbuz, Avtovağzal",shahbuz-avtovagzal-250,A,"Naxçıvan MR, Şahbuz şəhəri, H.Əliyev prospekti 28",57,39.408531,45.577033,1,0,0,0,0,,,,
578,Sədərək rayon filialı,sederek-rayon-filiali-251,A,"Naxçıvan MR, Sədərək rayonu, Heydərəbad qəsəbəsi",53,39.723701,44.849782,1,0,0,0,0,,,,
579,"Sədərək qəsəbəsi, Sədərək Rayon Rabitə Evi",sederek-qesebesi-sederek-rayon-rabite-evi-252,A,"Naxçıvan MR, Sədərək rayonu, Sədərək qəsəbəsi",53,39.704816,44.883002,1,0,0,0,0,,,,
580,"Hirkan kəndi, İcra Nümayəndəliyi",hirkan-kendi-icra-numayendeliyi-270,A,"Lənkəran rayonu, Hirkan kəndi",41,38.658804,48.803221,1,0,0,0,0,,,,
581,Fədək market,fedek-market-271,A,"Lənkəran şəhəri, Z. Əliyeva prospekti 2",41,38.759038,48.843705,1,0,0,0,0,,,,
582,"Lənkəran, Makromart",lenkeran-makromart-277,A,"Lənkəran şəhəri, Şiləvar kəndi, 21-ci məhəllə",41,38.7586,48.834777,1,0,0,0,0,,,,
583,"Lənkəran, Makromart (Mir Mustafaxan küçəsi)",lenkeran-makromart-mir-mustafaxan-kucesi-802,A,"Lənkəran şəhəri, Mir Mustafaxan küçəsi",41,38.753945,48.849568,1,0,0,0,0,,,,
584,"Liman şəhəri, Pibon market",liman-sheheri-pibon-market-274,A,"Lənkəran rayonu, Liman şəhəri, M.Ə. Rəsulzade küçəsi",41,38.877792,48.807639,1,0,0,0,0,,,,
585,"Şağlaser kəndi, ""Ay İşığı"" market",shaglaser-kendi-ay-ishigi-market-275,A,"Lənkəran rayonu, Şağlaser kəndi",41,38.856452,48.748296,1,0,0,0,0,,,,
586,"Şürük kəndi, Favorit market",shuruk-kendi-favorit-market-276,A,"Lənkəran rayonu, Şürük kəndi",41,38.696517,48.819331,1,0,0,0,0,,,,
587,"Boladi kəndi, Moskva market",boladi-kendi-moskva-market-982,A,"Lənkəran şəhəri, Boladi kəndi",41,38.89367,48.773508,1,0,0,0,0,,,,
588,"Girdəni kəndi, ""Tikinti materialları"" dükanı",girdeni-kendi-tikinti-materiallari-dukani-278,A,"Lənkəran rayonu, Girdəni kəndi",41,38.800111,48.78475,1,0,0,0,0,,,,
589,Lənkəran şəhər filialı,lenkeran-sheher-filiali-279,A,"Lənkəran şəhəri, M. Nəsirli küçəsi 3",41,38.753045,48.852885,1,0,0,0,0,,,,
590,Lənkəran şəhər filialı,lenkeran-sheher-filiali-852,A,"Lənkəran şəhəri, M. Nəsirli küçəsi 3",41,38.753286,48.853045,1,0,0,0,0,,,,
591,"Lənkəran, ""Dostluq"" mebel salonu (Kiçik Bazar)",lenkeran-dostluq-mebel-salonu-kicik-bazar-280,A,"Lənkəran şəhəri, H. Əliyev prospekti 39",41,38.730263341579665,48.776227709337604,1,0,0,0,0,,,,
592,"Aşağı Nüvədi qəsəbəsi, Makromart",ashagi-nuvedi-qesebesi-makromart-282,A,"Lənkəran rayonu, Aşağı Nüvədi qəsəbəsi",41,38.7059,48.823597,1,0,0,0,0,,,,
593,"Lənkəran, ""Xəzər"" market",lenkeran-xezer-market-273,A,"Lənkəran şəhəri, Füzuli küçəsi 101A",41,38.739655,48.82702,1,0,0,0,0,,,,
594,Masallı filialı,masalli-rayon-filiali-415,A,"Masallı şəhəri, H.Əliyev prospekti 91",42,39.06825081370427,48.68804062786065,1,0,0,0,0,,,,
595,"Oba market, Masallı rayonu",oba-market-masalli-rayonu-422,A,"Masallı rayonu , Füzuli küçəsi",42,39.02757,48.677936,1,0,0,0,0,,,,
596,"Ərkivan kəndi, ""Şahin"" market",erkivan-kendi-shahin-market-418,A,"Masallı rayonu, Ərkivan kəndi",42,39.011283,48.650954,1,0,0,0,0,,,,
597,"Yeddioymaq kəndi, ""Səməd"" market",yeddioymaq-kendi-semed-market-419,A,"Masallı rayonu, Yeddioymaq kəndi",42,39.01963,48.75745,1,0,0,0,0,,,,
598,"Şərəfə kəndi, Şərəfə ATS",sherefe-kendi-sherefe-ats-420,A,"Masallı rayonu, Şərəfə kəndi",42,39.111512360964696,48.70661354130018,1,0,0,0,0,,,,
599,"Türkoba kəndi, ""Yağmur"" market",turkoba-kendi-yagmur-market-421,A,"Masallı rayonu, Türkoba kəndi",42,38.918133,48.7071,1,0,0,0,0,,,,
600,"Masallı, Makromart",masalli-makromart-417,A,"Masallı şəhəri, H.Əliyev prospekti 30A",42,39.038546,48.675567,1,0,0,0,0,,,,
601,"Təklə kəndi, market",tekle-kendi-market-423,A,"Masallı rayonu, Təklə kəndi",42,39.124902,48.657824,1,0,0,0,0,,,,
602,"Qızılavar kəndi, ""E.R. Petrol"" YDM",qizilavar-kendi-er-petrol-ydm-424,A,"Masallı rayonu, Qızılavar kəndi",42,38.969423,48.668877,1,0,0,0,0,,,,
603,"Market, Masallı rayonu, Yeni Alvadı kəndi",market-masalli-rayonu-yeni-alvadi-kendi-425,A,"Masallı rayonu, Yeni Alvadı kəndi",42,39.083683,48.611558,1,0,0,0,0,,,,
604,"Mollaba kəndi, Masallı rayonu",mollaba-kendi-masalli-rayonu-803,A,Masallı rayonu,42,38.929421260232196,48.70738322961835,1,0,0,0,0,,,,
605,"""Masallı ASAN xidmət mərkəzi"" Kapital Bank-ın şöbəsi",masalli-asan-xidmet-merkezi-kapital-bank-in-shobesi-756,A,"Masallı şəhəri, H.Əliyev prospekti",42,39.020413,48.691325,1,0,0,0,0,,,,
606,Lerik filialı,lerik-filiali-491,A,"Lerik şəhəri, Camal Şahiyev küçəsi 3A",40,38.770104,48.420396,1,0,0,0,0,,,,
607,"Lerik, market",lerik-market-492,A,"Lerik şəhəri, İsmayıl Yaqubov küçəsi 5A",40,38.772346,48.41667,1,0,0,0,0,,,,
608,"Şingədulan kəndi, Market",shingedulan-kendi-market-493,A,"Lerik rayonu, Şingədulan kəndi",40,38.858457,48.394512,1,0,0,0,0,,,,
609,"Piran kəndi, ""Fərid"" market",piran-kendi-ferid-market-804,A,"Lerik rayonu, Piran kəndi",42,38.734629,48.657217,1,0,0,0,0,,,,
610,"Çayüzü kəndi, ""Valeh"" market",cayuzu-kendi-valeh-market-495,A,"Yardımlı rayonu, Çayüzü kəndi",66,38.88746,48.191232,1,0,0,0,0,,,,
611,"Market, Yardımlı şəhəri",market-yardimli-sheheri-497,A,"Yardımlı şəhəri, H. Əliyev prospekti",66,38.906796,48.242121,1,0,0,0,0,,,,
612,"Şəfəqli kəndi, ""Şəfəq"" market",shefeqli-kendi-shefeq-market-805,A,"Yardımlı rayonu, Şəfəqli kəndi",66,39.02366388,48.36766837,1,0,0,0,0,,,,
613,"Sırıq kəndi, YDM",siriq-kendi-ydm-499,A,"Yardımlı rayonu, Sırıq kəndi",66,38.914598,48.306708,1,0,0,0,0,,,,
614,Yardımlı filialı,yardimli-filiali-500,A,"Yardımlı şəhəri, H. Əliyev prospekti 41",66,38.90343,48.236396,1,0,0,0,0,,,,
615,"Hamarkənd kəndi, Poçt şöbəsi",hamarkend-kendi-poct-shobesi-501,A,"Yardımlı rayonu, Hamarkənd kəndi",66,38.864434,48.276622,1,0,0,0,0,,,,
616,Beyləqan  filialı,beyleqan-rayon-filiali-286,A,"Beyləqan şəhəri, G.Əsədov küçəsi 46",11,39.77288,47.61632,1,0,0,0,0,,,,
617,"Ticarət mərkəzi, Dünyamalılar kəndi",ticaret-merkezi-dunyamalilar-kendi-287,A,"Beyləqan rayonu, Dünyamalılar kəndi 7 m. 9",11,39.770387,47.763691,1,0,0,0,0,,,,
618,"Davud market, Birinci Şahsevən kəndi",davud-market-birinci-shahseven-kendi-288,A,"Beyləqan rayonu, Birinci Şahsevən kəndi",11,39.629864,47.710816,1,0,0,0,0,,,,
619,"Beyləqan, Ərzaq mağazası",beyleqan-erzaq-magazasi-289,A,"Beyləqan şəhəri, S. Qazıyeva küçəsi 42",11,39.76751494220041,47.59512491341034,1,0,0,0,0,,,,
620,"Beyləqan, ""Cavid"" market",beyleqan-cavid-market-290,A,"Beyləqan şəhəri, Magistral yolun kənarında (S.İmrəliyev küçəsi)",11,39.774341,47.622768,1,0,0,0,0,,,,
621,"Birinci Şahsevən kəndi, ""Anar Petrol"" YDM",birinci-shahseven-kendi-anar-petrol-ydm-293,A,"Beyləqan rayonu, Birinci Şahsevən kəndi",11,39.644217,47.690852,1,0,0,0,0,,,,
622,"Milabad kəndi, N saylı hərbi hissə",milabad-kendi-n-sayli-herbi-hisse-294,A,"Beyləqan rayonu, Milabad kəndi",11,39.660712,47.659063,1,0,0,0,0,,,,
623,"500 ailəlik Xocavənd qəsəbəsi, İcra Nümayəndəliyi",500-ailelik-xocavend-qesebesi-icra-numayendeliyi-779,A,"Beyləqan rayonu, 500 ailəlik Xocavənd qəsəbəsi",11,39.748753,47.528732,1,0,0,0,0,,,,
624,"Qaralılar kəndi, Market",qaralilar-kendi-market-295,A,"Beyləqan rayonu, Qaralılar kəndi",11,39.76653,47.875585,1,0,0,0,0,,,,
625,"Örənqala qəsəbəsi, market",orenqala-qesebesi-market-771,A,"Beyləqan rayonu, Örənqala qəsəbəsi",11,39.88803,47.496082,1,0,0,0,0,,,,
626,"ASAN Xidmət, İmişli rayonu",asan-xidmet-imisli-rayonu,A,"İmişli rayonu, F.Səfərəliyev 1",29,39.87789,48.084233,1,0,0,0,0,,,,
627,İmişli filialı,imishli-rayon-filiali-460,A,"İmişli şəhəri, H. Əliyev prospekti 45",29,39.869929,48.060152,1,0,0,0,0,,,,
628,"Sarıxanlı kəndi, Sarıxanlı bələdiyyəsi",sarixanli-kendi-sarixanli-belediyyesi-461,A,"İmişli rayonu, Sarıxanlı kəndi",29,39.817084,47.927306,1,0,0,0,0,,,,
629,"Yaşıl market, Çaxırlı kəndi",yashil-market-caxirli-kendi-935,A,"İmişli rayonu, Çaxırlı kəndi",29,39.743179,48.001846,1,0,0,0,0,,,,
630,"Qaralar kəndi, Market",qaralar-kendi-market-464,A,"İmişli rayonu, Qaralar kəndi",29,39.86263,48.034477,1,0,0,0,0,,,,
631,"""Orbita"" mağazası, İmişli rayonu",orbita-magazasi-imishli-rayonu-467,A,"İmişli şəhəri, H. Əliyev prospekti 85",29,39.87156,48.064033,1,0,0,0,0,,,,
632,"Market, İmişli rayonu",market-imishli-rayonu-466,A,"İmişli rayonu, Məşədi Əzizbəyov küçəsi",29,39.860241,48.063135,1,0,0,0,0,,,,
633,"""Kamran"" market, İmişli rayonu",kamran-market-imishli-rayonu-465,A,"İmişli şəhəri, N.Nərimanov küçəsi 130",29,39.868012,48.062933,1,0,0,0,0,,,,
634,"Qaradonlu kəndi, ""Elvin"" market",qaradonlu-kendi-elvin-market-468,A,"İmişli rayonu, Qaradonlu kəndi",29,39.78817,48.066981,1,0,0,0,0,,,,
635,"Yeni Bəhramtəpə kəndi, market",yeni-behramtepe-kendi-market-469,A,"İmişli rayonu, Yeni Bəhramtəpə kəndi",29,39.755025,47.953305,1,0,0,0,0,,,,
636,"Market, Aranlı kəndi",market-aranli-kendi-1005,A,"İmişli rayonu, Aranlı kəndi",29,39.697694,48.101413,1,0,0,0,0,,,,
637,Füzuli filialı,fuzuli-rayon-filiali-768,A,"Füzuli rayonu, Horadiz şəhəri, 20 Yanvar küçəsi 12",18,39.447553,47.338966,1,0,0,0,0,,,,
638,"1 saylı qəsəbəsi, Market",1-sayli-qesebesi-market-550,A,"Füzuli rayonu, 1 saylı qəsəbə",18,39.612245,47.65782,1,0,0,0,0,,,,
639,"Aranqala qəsəbəsi, Nicat market",aranqala-qesebesi-nicat-market-551,A,"Füzuli rayonu, Aranqala qəsəbəsi",18,39.63760594614041,47.684543800048864,1,0,0,0,0,,,,
640,"Ticarət mərkəzi, Zobucuq qəsəbəsi",ticaret-merkezi-zobucuq-qesebesi-553,A,"Füzuli rayonu, Zobucuq qəsəbəsi",18,39.568902,47.404823,1,0,0,0,0,,,,
641,"Əhmədbəyli kəndi, Market",ehmedbeyli-kendi-market-554,A,"Füzuli rayonu, Əhmədbəyli kəndi",18,39.563254,47.556916,1,0,0,0,0,,,,
642,"Böyük Bəhmənli kəndi, ""Şəms"" geyim mağazası",boyuk-behmenli-kendi-shems-geyim-magazasi-555,A,"Füzuli rayonu, Böyük Bəhmənli kəndi",29,39.515812,47.499294,1,0,0,0,0,,,,
643,"Elçin market, Horadiz qəsəbəsi",elcin-market-horadiz-qesebesi-556,A,"Füzuli rayonu, Horadiz şəhəri",18,39.460999,47.327257,1,0,0,0,0,,,,
644,"Bala Bəhmənli kəndi, Ticarət mərkəzi",bala-behmenli-kendi-ticaret-merkezi-557,A,"Füzuli rayonu, Bala Bəhmənli kəndi",18,39.558,47.564321,1,0,0,0,0,,,,
645,"Yuxarı Kürdmahmudlu kəndi, YDM",yuxari-kurdmahmudlu-kendi-ydm-558,A,"Füzuli rayonu, Yuxarı Kürdmahmudlu kəndi",18,39.64104061779837,46.553992743410475,1,0,0,0,0,,,,
646,Ağcabədi 2,aghjabadi-2-566,A,"Ağcabədi rayonu, Taxta Körpü qəsəbəsi",3,39.79040297840796,47.64853996959087,1,0,0,0,0,,,,
647,"Cocuq mərcanlı kəndi, Polis məntəqəsi",cocuq-mercanli-kendi-polis-menteqesi-14,A,"Cəbrayıl rayonu, Cocuq mərcanlı kəndi, Polis məntəqəsi",14,39.397123,47.306946,1,0,0,0,0,,,,
648,Hacıqabul  filialı,haciqabul-rayon-filiali-323,A,"Hacıqabul şəhəri, İ. Qayıbov küçəsi 19",24,40.022442,48.938096,1,0,0,0,0,,,,
649,"Hacıqabul, ""Hacıqabul"" market",haciqabul-seheri-h-eliyev-kucesi-32,A,Haciqabul-Haciqabul-market-324,24,40.032521676084194,48.934937773953024,1,0,0,0,0,,,,
650,"Kaspi YDM, Hacıqabul rayonu",kaspi-ydm-haciqabul-rayonu-325,A,"Hacıqabul rayonu, Mərkəzi dairəvi yol",24,40.044188,48.936404,1,0,0,0,0,,,,
651,"""Muğan"" Firması, Muğan qəsəbəsi",mugan-firmasi-mugan-qesebesi-327,A,"Hacıqabul rayonu, Muğan kəndi",24,40.083775,48.837902,1,0,0,0,0,,,,
652,"Nuran market, Navahı qəsəbəsi",nuran-market-navahi-qesebesi-988,A,"Navahı qəsəbəsi, Hacıqabul rayonu",24,40.009937,49.152148,1,0,0,0,0,,,,
653,Udulu kəndi,udulu-kendi-996,A,"Hacıqabul rayonu, Udulu kəndi",24,40.238827,48.903361,1,0,0,0,0,,,,
654,Biləsuvar filialı,bilesuvar-rayon-filiali-377,A,"Biləsuvar şəhəri, H. Əliyev küçəsi 42",13,39.45476124,48.54648468,1,0,0,0,0,,,,
655,"Biləsuvar, Cavid market",bilesuvar-cavid-market-378,A,"Biləsuvar şəhəri, H. Əliyev prospekti",13,39.459997,48.542048,1,0,0,0,0,,,,
656,"Biləsuvar, Ağacdələn mebel dükanı",bilesuvar-agacdelen-mebel-dukani-379,A,"Biləsuvar şəhəri, H. Əliyev prospekti",13,39.453616309389055,48.603496511520646,1,0,0,0,0,,,,
657,"Ağalıkənd kəndi, Ticarət mərkəzi",agalikend-kendi-ticaret-merkezi-380,A,"Biləsuvar rayonu, Ağalıkənd kəndi",13,39.37760688476944,48.57157868055443,1,0,0,0,0,,,,
658,"Biləsuvar, Aran Market",bilesuvar-aran-market-381,A,"Biləsuvar şəhəri, H. Əliyev prospekti 36",13,39.454035,48.54728,1,0,0,0,0,,,,
659,"Biləsuvar, Nur market",bilesuvar-nur-market-383,A,"Biləsuvar şəhəri, M.İbrahimov küçəsi 108H",13,39.461854,48.561303,1,0,0,0,0,,,,
660,"Abışabad kəndi, ""Cəlal"" market",abishabad-kendi-celal-market-426,A,"Cəlilabad rayonu, Abışabad kəndi",15,39.25988,48.409878,1,0,0,0,0,,,,
661,Cəlilabad filialı,celilabad-rayon-filiali-427,A,"Cəlilabad şəhəri, Azərbaycan küçəsi 121",15,39.21788574,48.52243882,1,0,0,0,0,,,,
662,"Rahat market, Cəlilabad şəhəri",rahat-market-celilabad-sheheri-783,A,"Cəlilabad şəhəri, H. Əliyev prospekti 464D",15,39.206571,48.483666,1,0,0,0,0,,,,
663,Cəlilabad filialı,celilabad-rayon-filiali-854,A,"Cəlilabad şəhəri, Azərbaycan küçəsi 121",15,39.211708,48.505422,1,0,0,0,0,,,,
664,"""Asiman"" market, Göytəpə qəsəbəsi",asiman-market-goytepe-qesebesi-430,A,"Cəlilabad rayonu, Göytəpə şəhəri, Qurtuluş küçəsi 104",15,39.118077,48.594406,1,0,0,0,0,,,,
665,"Alar kəndi, ""2002"" market",alar-kendi-2002-market-431,A,"Cəlilabad rayonu, Alar kəndi",15,39.314519,48.529224,1,0,0,0,0,,,,
666,Qızıltac market,qiziltac-market-791,A,"Cəlilabad rayonu, Mehdi Hüseyn küç. Yeni yaş. mas. 89-109",15,39.215914,48.502532,1,0,0,0,0,,,,
667,"Privolnoye kəndi, ""İnşaat malları"" mağazası",privolnoye-kendi-inshaat-mallari-magazasi-765,A,"Cəlilabad rayonu, Privolnoye kəndi",15,39.128288,48.534912,1,0,0,0,0,,,,
668,Uzuntəpə kəndi,uzuntepe-kendi-995,A,"Cəlilabad rayonu, Uzuntəpə kəndi",15,39.225913,48.601002,1,0,0,0,0,,,,
669,"Cəbrayıl 1 saylı şəhərciyi, Biləsuvar rayonu",cebrayil-1-sayli-sheherciyi-bilesuvar-rayonu-864,A,"Biləsuvar rayonu, 1 Saylı Qaçqın Şəhərciyi",13,39.722753,48.031174,1,0,0,0,0,,,,
670,Cəbrayıl rayon filialı,cebrayil-rayon-filiali-591,A,"Biləsuvar rayonu, 8 saylı qəsəbə",14,39.644818,48.132216,1,0,0,0,0,,,,
671,Balakən  filialı,balaken-rayon-filiali-472,A,"Balakən şəhəri, M. Əsədov küçəsi 21",10,41.722491,46.402946,1,0,0,0,0,,,,
672,"Balakən, ""Azercell"" telefon mağazası",balaken-azercell-telefon-magazasi-475,A,"Balakən şəhəri, H. Əliyev prospekti 28",10,41.719985276015095,46.41742599983351,1,0,0,0,0,,,,
673,"Katex kəndi, Balakən rayonu",katex-kendi-balaken-rayonu-869,A,"Balakən rayonu, Katex kəndi",10,41.649385,46.515456,1,0,0,0,0,,,,
674,İsmayıllı  filialı,ismayilli-rayon-filiali-513,A,"İsmayıllı şəhəri, M.F. Axundov küçəsi 53A",30,40.782087,48.155486,1,0,0,0,0,,,,
675,"Yurd market, İsmayıllı rayonu",yurd-market-ismayilli-rayonu-514,A,"İsmayıllı şəhəri, Cavanşir küçəsi 4",30,40.78831645340933,48.14834972354701,1,0,0,0,0,,,,
676,"Lahıc qəsəbəsi, Lahıc bələdiyyəsi",lahic-qesebesi-lahic-belediyyesi-515,A,"İsmayıllı rayonu, Lahıc qəsəbəsi",30,40.845966,48.382121,1,0,0,0,0,,,,
677,"İvanovka kəndi, ""İvanovka Petrol"" YDM",ivanovka-kendi-ivanovka-petrol-ydm-790,A,"İsmayıllı rayonu, İvanovka kəndi, Qaraməryəm yolu",30,40.77105,48.0703,1,0,0,0,0,,,,
678,"Meqa market, Göyçay rayonu",meqa-market-goycay-rayonu-516,A,"Göyçay şəhəri, H. Əliyev prospekti, 69",22,40.649267,47.744976,1,0,0,0,0,,,,
679,"Göyçay, ""Final"" market",goycay-final-market-517,A,"Göyçay şəhəri, Nizami küçəsi 183",22,40.65035589,47.73814781,1,0,0,0,0,,,,
680,Göyçay filialı,goycay-filiali-519,A,"Göyçay şəhəri, H.Z. Tağıyev küçəsi",22,40.64699,47.747666,1,0,0,0,0,,,,
681,"Sor-Sor kəndi, N saylı hərbi hissə",sor-sor-kendi-n-sayli-herbi-hisse-407,A,"Kürdəmir rayonu, Sor-Sor kəndi",32,40.284024,48.147702,1,0,0,0,0,,,,
682,Bərdə filialı,berde-rayon-filiali-256,A,"Bərdə şəhəri, M.Rəsulzаdə küçəsi 11",12,40.38529321,47.12469014,1,0,0,0,0,,,,
683,"""Piramida"" market, Bərdə rayonu",piramida-market-berde-rayonu-257,A,"Bərdə şəhəri, Bakı küçəsi",12,40.382819,47.134655,1,0,0,0,0,,,,
684,"Bərdə, Bazarstore Supermarket",berde-bazarstore-supermarket-259,A,"Bərdə şəhəri, Bakı küçəsi 2A",12,40.376306,47.134542,1,0,0,0,0,,,,
685,"Bərdə, ""İlqar"" market",berde-ilqar-market-260,A,"Bərdə şəhəri, H. Aslanov küçəsi",12,40.380139,47.11171,1,0,0,0,0,,,,
686,Bərdə filialı,berde-rayon-filiali-261,A,"Bərdə şəhəri, M.Rəsulzаdə küçəsi 11",12,40.38529321,47.12469014,1,0,0,0,0,,,,
687,"Şirvanlı kəndi, Şirvanlı kənd poçt şöbəsi",shirvanli-kendi-shirvanli-kend-poct-shobesi-262,A,"Bərdə rayonu, Şirvanlı kəndi",12,40.315671,47.126382,1,0,0,0,0,,,,
688,"Birinci Qaradəmirçi kəndi, ""Lək"" market",birinci-qarademirci-kendi-lek-market-263,A,"Bərdə rayonu, Birinci Qaradəmirçi kəndi",12,40.359952,47.142093,1,0,0,0,0,,,,
689,"Divanlı kəndi, Bolmart",divanli-kendi-bolmart-264,A,"Bərdə rayonu, Divanlı kəndi",12,40.401051,47.124563,1,0,0,0,0,,,,
690,"Mustafaağalı kəndi, Ticarət mərkəzi",mustafaagali-kendi-ticaret-merkezi-265,A,"Bərdə rayonu, Mustafağalı kəndi",12,40.318945,47.284386,1,0,0,0,0,,,,
691,"Cəyirli kəndi, N saylı hərbi hissə",ceyirli-kendi-n-sayli-herbi-hisse-266,A,"Bərdə rayonu, Cəyirli kəndi",12,40.44089,47.124426,1,0,0,0,0,,,,
692,"""Ruzi"" market, Bərdə rayonu",ruzi-market-berde-rayonu-267,A,"Bərdə şəhəri, Ü. Hacıbəyov küşəsi 10",12,40.374679,47.122385,1,0,0,0,0,,,,
693,"Bərdə, ASAN xidmət mərkəzi",berde-asan-xidmet-merkezi-268,A,"Bərdə şəhəri, H.Əliyev prospekti 89",12,40.394466,47.124156,1,0,0,0,0,,,,
694,"Lənbəran kəndi, ""Planet Petrol"" YDM",lenberan-kendi-planet-petrol-ydm-692,A,"Bərdə rayonu, Lənbəran kəndi",12,40.205752,47.229432,1,0,0,0,0,,,,
695,"LUX market, Yeni Daşkənd",lux-market-yeni-dashkend-859,A,"Bərdə rayonu, Yeni Daşkənd kəndi",12,40.36945,47.041758,1,0,0,0,0,,,,
696,"Oba Market, Cəyirli kəndi",oba-market-ceyirli-kendi-920,A,"Bərdə rayonu, Cəyərli kəndi, Qaçqın qəsəbəsi",12,40.449422,47.112891,1,0,0,0,0,,,,
698,Gədəbəy filialı,gedebey-rayon-filiali-526,A,"Gədəbəy şəhəri, 20 Yanvar küçəsi 4",19,40.576204,45.810228,1,0,0,0,0,,,,
699,"Saratovka kəndi, Market",saratovka-kendi-market-527,A,"Gədəbəy rayonu, Saratovka kəndi",19,40.597878,45.600331,1,0,0,0,0,,,,
700,"Düz Rəsullu kəndi, ""Mahir"" market",duz-resullu-kendi-mahir-market-770,A,"Gədəbəy rayonu, Düz Rəsullu kəndi",19,40.65277378,45.49262264,1,0,0,0,0,,,,
701,Gədəbəy filialı,gedebey-rayon-filiali-855,A,"Gədəbəy şəhəri, 20 Yanvar küçəsi 4",19,40.576186,45.810225,1,0,0,0,0,,,,
702,Şirvan şəhər filialı,shirvan-sheher-filiali-296,A,"Şirvan şəhəri, M. Ə. Rəsulzadə küçəsi 1",62,39.95262,48.94413,1,0,0,0,0,,,,
703,Şirvan şəhər filialı,shirvan-sheher-filiali-853,A,"Şirvan şəhəri, M. Ə. Rəsulzadə küçəsi 1",62,39.952423,48.944524,1,0,0,0,0,,,,
704,"Şirvan şəhəri, Şirvan Dəmiryol Stansiyası",shirvan-sheheri-shirvan-demiryol-stansiyasi-297,A,"Şirvan şəhəri, Gülbala Şıxbalaoğlu küçəsi 1",62,39.933965,48.921462,1,0,0,0,0,,,,
705,"Şirvan şəhəri, ""Ailəm"" market",shirvan-sheheri-ailem-market-798,A,"Şirvan şəhəri, H. Əliyev prospekti",62,39.969544,48.943313,1,0,0,0,0,,,,
706,Şirvan şəhər Mərkəzi Xəstəxanası,shirvan-sheher-merkezi-xestexanasi-299,A,"Şirvan şəhəri, H.Əliyev prospekti 16",62,39.952287,48.935929,1,0,0,0,0,,,,
707,Şirvan İstilik Elektrik Stansiyası MMC,shirvan-istilik-elektrik-stansiyasi-mmc-928,A,"Şirvan şəhəri, DRES ərazisi",62,39.892318,48.922895,1,0,0,0,0,,,,
708,"Şirvan şəhəri, Dəniz market",shirvan-sheheri-deniz-market-766,A,"Şirvan şəhəri, Taləh Ələkbərov küçəsi 1",62,39.942812,48.931368,1,0,0,0,0,,,,
709,"Qarabağlı kəndi, “Samir Şirkəti” MMC",qarabagli-kendi-samir-shirketi-mmc-301,A,"Salyan rayonu, Qarabağlı kəndi",51,39.780099,48.965653,1,0,0,0,0,,,,
710,"Xələc kəndi, ""Toğrul"" market",xelec-kendi-togrul-market-797,A,"Salyan rayonu, Xələc kəndi",51,39.735325,49.012286,1,0,0,0,0,,,,
711,"""Dərələyəz"" market, Salyan rayonu",dereleyez-market-salyan-rayonu-304,A,"Salyan rayonu, Salyan-Şirvan yolu",51,39.76979,48.976274,1,0,0,0,0,,,,
712,"Xıdırlı kəndi, ""Azər"" market",salyan-rayonu-xidirli-kendi,A,"Salyan rayonu, Xıdırlı kəndi",51,39.843837,49.324227,1,0,0,0,0,,,,
713,"Moranlı kəndi, Natiq market",moranli-kendi-natiq-market-702,A,"Sabirabad rayonu, Moranlı kəndi",50,39.792619,48.741135,1,0,0,0,0,,,,
714,Sabirabad filialı,sabirabad-rayon-filiali-305,A,"Sabirabad şəhəri, H. Əliyev prospekti 33",50,40.004669,48.470555,1,0,0,0,0,,,,
715,"Sabirabad şəhəri, ""Çinar"" market",sabirabad-sheheri-cinar-market-306,A,"Sabirabad şəhəri, Qalağayın dairəsi",50,39.978963,48.457284,1,0,0,0,0,,,,
716,Sabirabad  filialı,sabirabad-rayon-filiali-307,A,"Sabirabad şəhəri, H. Əliyev prospekti 33",50,40.006246,48.471119,1,0,0,0,0,,,,
717,"Həşimxanlı kəndi, Bolmart",heshimxanli-kendi-bolmart-800,A,"Həşimxanlı kəndi, Bolmart",50,40.031815,48.680749,1,0,0,0,0,,,,
718,"Cavad kəndi, ""Avtoehtiyyat hissələri"" mağazası",cavad-kendi-avtoehtiyyat-hisseleri-magazasi-308,A,"Sabirabad rayonu, Cavad kəndi",50,40.027262,48.455552,1,0,0,0,0,,,,
719,"Ulacalı kəndi, Ticarət mərkəzi",ulacali-kendi-ticaret-merkezi-309,A,Sabırabad ray Ulacalı kəndi,50,40.07425,48.583677,1,0,0,0,0,,,,
720,"Nizami kəndi, Market",nizami-kendi-market-310,A,"Sabirabad rayonu, Nizami kəndi",50,39.919574,48.753017,1,0,0,0,0,,,,
721,"Quruzma kəndi, ""Kür"" market",quruzma-kendi-kur-market-311,A,"Sabirabad rayonu, Quruzma kəndi",50,40.081215,48.623821,1,0,0,0,0,,,,
722,"Minbaşı kəndi, Rahat market",minbashi-kendi-rahat-market-312,A,"Sabirabad rayonu, Minbaşı kəndi",50,39.92129,48.875051,1,0,0,0,0,,,,
723,"Sabirabad, ASAN xidmət mərkəzi",sabirabad-asan-xidmet-merkezi-313,A,"Sabirabad şəhəri, H.Əliyev prospekti 128",50,40.017385,48.4766,1,0,0,0,0,,,,
724,"Cəngən kəndi, ""Cəngən"" market",cengen-kendi-cengen-market-801,A,"Sabirabad rayonu, Cəngən kəndi",50,39.72647,48.939721,1,0,0,0,0,,,,
725,"Yeni market, Sabirabad rayonu",yeni-market-sabirabad-rayonu-767,A,"Sabirabad şəhəri, H. Əliyev prospekti 25",50,40.001171,48.469964,1,0,0,0,0,,,,
726,"Məzrəli kəndi, Həsən market",mezreli-kendi-hesen-market-703,A,"Saatlı rayonu, Məzrəli kəndi",49,39.910304,48.244153,1,0,0,0,0,,,,
727,"Mərkəzi Poçt, Saatlı rayon",merkezi-poct-saatli-rayon-316,A,"Saatlı rayon, Gənclər meydanı, 9",49,39.927959,48.358756,1,0,0,0,0,,,,
728,Saatlı  filialı,saatli-rayon-filiali-314,A,"Saatlı şəhəri, H. Əliyev prospekti 131",49,39.938975,48.372213,1,0,0,0,0,,,,
729,Saatlı filialı,saatli-filiali-866,A,"Saatlı rayonu, Cəfər Cabbarlı küçəsi 9",49,39.93902628946893,48.37259913498364,1,0,0,0,0,,,,
730,"Nadir Market, Qara Nuru kəndi",nadir-market-qara-nuru-kendi-318,A,"Saatlı rayonu, Qara Nuru kəndi",49,39.9172,48.507776,1,0,0,0,0,,,,
731,"Saatlı şəhəri, ""Elton"" market",saatli-sheheri-elton-market-319,A,"Saatlı şəhəri, H.Əliyev prospekti 185",49,39.936187,48.361521,1,0,0,0,0,,,,
732,"Şirinbəy kəndi, ""Paşa"" market",shirinbey-kendi-pasha-market-320,A,"Saatlı rayonu, Şrinbəy kəndi",49,39.884195,48.539216,1,0,0,0,0,,,,
733,"Qırağlı kəndi, ""Şamo MMC"" pambıq satışı şirkəti",qiragli-kendi-shamo-mmc-pambiq-satishi-shirketi-322,A,"Saatlı rayonu, Qırağlı kəndi",49,39.954199,48.404891,1,0,0,0,0,,,,
734,"Salyan, Market",salyan-market-328,A,"Salyan şəhəri, Ələt-Astara-İran yolu",51,39.594604,48.969276,1,0,0,0,0,,,,
735,Poçt şöbəsi,poct-shobesi-879,A,"Salyan rayonu, Heydər Əliyev prospekti 94",51,39.56657762,48.9314738945136,1,0,0,0,0,,,,
736,Salyan filialı,salyan-rayon-filiali-330,A,"Salyan şəhəri, H.Əliyev küçəsi 90",51,39.59732264,48.984725,1,0,0,0,0,,,,
737,"Yenikənd kəndi, ""İdeal"" Ticarət mərkəzi",yenikend-kendi-ideal-ticaret-merkezi-302,A,"Salyan rayonu, Yenikənd kəndi",51,39.711031,49.082491,1,0,0,0,0,,,,
738,"Sarvan kəndi, ""Avtoehtiyyat hissələri"" dükanı",sarvan-kendi-avtoehtiyyat-hisseleri-dukani-331,A,"Salyan rayonu, Sarvan kəndi",51,39.477554,48.902718,1,0,0,0,0,,,,
739,"Çuxanlı kəndi, N saylı hərbi hissə",cuxanli-kendi-n-sayli-herbi-hisse-332,A,"Salyan rayonu, Çuxanlı kəndi",51,39.601488,48.961642,1,0,0,0,0,,,,
740,"""Ay İşığı"" Supermarket, Salyan şəhəri",ay-ishigi-supermarket-salyan-sheheri-333,A,"Salyan şəhəri, Bakı-Astara yolunun 130-cu km",51,39.580639,48.969289,1,0,0,0,0,,,,
741,"Sübhan market, Şorsulu kəndi",subhan-market-shorsulu-kendi-871,A,"Salyan rayonu, Şorsulu kəndi",51,39.429493,48.839288,1,0,0,0,0,,,,
742,Neftçala filialı,neftcala-rayon-filiali-433,A,"Neftçala rayon, H.Əliyev prospekti 33A",46,39.389091,49.246212,1,0,0,0,0,,,,
743,"Həsənabad kəndi, ""Fərid"" market",hesenabad-kendi-ferid-market-435,A,"Neftçala rayonu, Həsənabad kəndi",46,39.333744,49.216172,1,0,0,0,0,,,,
744,"Aşağı Qaramanlı kəndi, ""Bizim"" market",ashagi-qaramanli-kendi-bizim-market-436,A,"Neftçala rayonu, Aşağı Qaramanlı kəndi",46,39.432312,49.026748,1,0,0,0,0,,,,
745,"Bankə qəsəbəsi, ""Bankə"" market",banke-qesebesi-banke-market-437,A,"Neftçala rayonu, Bankə qəsəbəsi",46,39.415794,49.253185,1,0,0,0,0,,,,
746,"Xol Qaraqaşlı kəndi, ""Qarağac"" Ticarət mərkəzi",xol-qaraqashli-kendi-qaragac-ticaret-merkezi-438,A,"Neftçala rayonu, Xol Qaraqaşlı kəndi",46,39.311373,48.813479,1,0,0,0,0,,,,
747,"Neftçala, Mərkəzi Bazar",neftcala-merkezi-bazar-440,A,"Neftçala şəhəri, H. Əliyev prospekti 45",46,39.392438,49.244535,1,0,0,0,0,,,,
748,"Aşağı Surra kəndi, Poçt şöbəsi",ashagi-surra-587,A,"Neftçala rayonu, Aşağı Surra kəndi",46,39.483453,49.002887,1,0,0,0,0,,,,
749,Xaçmaz filialı,xacmaz-rayon-filiali-452,A,"Xaçmaz şəhəri, H. Z. Tağıyev küçəsi 9",25,41.46699,48.80243,1,0,0,0,0,,,,
750,"Xaçmaz, Poçt",xacmaz-poct-453,A,"Xaçmaz şəhəri, N. Nərimanov küçəsi 10",25,41.45941,48.797038,1,0,0,0,0,,,,
751,"Xudat şəhəri, Ailə market",xudat-sheheri-aile-market-454,A,"Xaçmaz rayonu, Xudat şəhəri, M. F. Axundov küçəsi",25,41.622472,48.686972,1,0,0,0,0,,,,
752,"Market, Nərəcan kəndi",market-nerecan-kendi-455,A,"Xaçmaz rayonu, Nərəcan kəndi",25,41.528954,48.745028,1,0,0,0,0,,,,
753,"Yalama Aqropark, Xaçmaz rayonu",yalama-aqropark-xacmaz-rayonu-865,A,"Xaçmaz rayonu, Yalama qəsəbəsi, Samur-Yalama yolu",25,41.745129,48.558282,1,0,0,0,0,,,,
754,"Qaraqurdlu kəndi, Ticarət mərkəzi",qaraqurdlu-kendi-ticaret-merkezi-456,A,"Xaçmaz rayonu, Qaraqurdlu kəndi",25,41.461291,48.82129,1,0,0,0,0,,,,
755,"Qusarçay kəndi, Rafaello market",qusarcay-kendi-rafaello-market-457,A,"Xaçmaz rayonu, Qusarçay kəndi",25,41.565243,48.721335,1,0,0,0,0,,,,
756,"Yalama kəndi, Ticarət mərkəzi",yalama-kendi-ticaret-merkezi-458,A,"Xaçmaz rayonu, Yalama kəndi, Yalama-Xanoba yolu",25,41.75771,48.585458,1,0,0,0,0,,,,
757,"Xaçmaz-Xudat yolu, market",xacmaz-xudat-yolu-market-459,A,"Xaçmaz şəhəri, Xaçmaz-Xudat yolu",25,41.453779,48.789236,1,0,0,0,0,,,,
758,"Xaçmaz, EkoMart supermarket",xacmaz-ekomart-supermarket-762,A,"Xaçmaz şəhəri, H. Z. Tağıyev küçəsi 73",25,41.459617,48.78831,1,0,0,0,0,,,,
759,Qalaaltı Hotel,qalaalti-hotel-964,A,"Şabran rayonu, Qalaaltı Hotel",56,41.089495,48.937185,1,0,0,0,0,,,,
760,Xudat şəhəri,xudat-qesebesi-970,A,Xudat şəhəri,25,41.632753,48.681523,1,0,0,0,0,,,,
761,Qusar filialı,qusar-rayon-filiali-351,A,"Qusar şəhəri, H.Əliyev prospekti 127",38,41.418555,48.417061,1,0,0,0,0,,,,
762,"Eynar market, Qusar rayonu",eynar-market-qusar-rayonu-352,A,"Qusar şəhəri, N.Şərifov küçəsi",38,41.432827860333425,48.43450154089336,1,0,0,0,0,,,,
763,"Hil kəndi, Ruslan market",hil-kendi-ruslan-market-353,A,"Qusar rayonu, Hil kəndi",38,41.470398,48.343526,1,0,0,0,0,,,,
764,"Qusar şəhəri, Real market",qusar-sheheri-real-market-354,A,"Qusar şəhəri, Qazi Məmməd küçəsi",38,41.426418,48.424032,1,0,0,0,0,,,,
765,"Qusar rayonu, SDK market",qusar-rayonu-sdk-market-590,A,"Qusar rayonu, Samur qəsəbəsi, Bakı-Quba-Rusiya yolu",38,41.634901,48.426604,1,0,0,0,0,,,,
766,"Həzrə kəndi, market",hezre-kendi-market-356,A,"Qusar rayonu, Həzrə kəndi",38,41.507012,48.245843,1,0,0,0,0,,,,
767,"Maqnit Mağazası ,Qusar rayonu",maqnit-magazasi-qusar-rayonu-358,A,"Qusar şəhəri, Elza İbrahimova küçəsi 6A",38,41.42346,48.433802,1,0,0,0,0,,,,
768,"Qusar rayonu, Pik Palace Şahdağ Oteli",qusar-rayonu-pik-palace-shahdag-oteli-708,A,"Qusar rayonu, Kuzun kəndi, Qusar-Ləzə yolunun 29-cu km",38,41.318181,48.135352,1,0,1,0,0,,,,
769,Zirvə Otel,zirve-otel-959,A,"Qusar rayonu, Laza kəndi",38,41.32219,48.148682,1,0,0,0,0,,,,
770,Shahdag Hotel and Spa,shahdag-hotel-and-spa-958,A,"Qusar rayonu, Laza kəndi",38,41.319537,48.136508,1,0,0,0,0,,,,
772,"Siyəzən,""Qızıl Burun"" inşaat materialları mağazası",siyezenqizil-burun-inshaat-materiallari-magazasi-400,A,"Siyəzən şəhəri, H. Əliyev küçəsi 116",54,41.07774197134098,49.11869559637312,1,0,0,0,0,,,,
773,Paşa Bank Quba filialı,pasha-bank-quba-filiali-980,A,"Quba şəhəri, Natavan küçəsi 15",37,41.36965329,48.51319599,1,0,0,0,0,,,,
774,Şabran filialı,shabran-filiali-408,A,"Şabran şəhəri, M. Ə. Rəsulzadə küçəsi 16B",56,41.200455,48.983217,1,0,0,0,0,,,,
775,"Şabran, ""Klassik 339"" market",shabran-klassik-339-market-409,A,"Şabran şəhəri, H.Əliyev prospekti",56,41.214218,49.003322,1,0,0,0,0,,,,
776,"Gəndov kəndi, market",gendov-kendi-market-410,A,"Şabran rayonu, Gəndov kəndi",56,41.259942,48.902229,1,0,0,0,0,,,,
777,"Aygünlü kəndi, Ticarət mərkəzi",aygunlu-kendi-ticaret-merkezi-411,A,"Şabran rayonu, Aygünlü kəndi",56,41.295471,48.850501,1,0,0,0,0,,,,
778,Rəhimli kəndi,rehimli-kendi-944,A,"Şabran rayonu, Rəhimli kəndi",56,41.394536,48.845567,1,0,0,0,0,,,,
779,Quba filialı,quba-rayon-filiali-441,A,"Quba şəhəri, H. Əliyev prospekti 23",37,41.358805,48.503524,1,0,0,0,0,,,,
780,"Quba, Favorit market",quba-favorit-market-442,A,"Quba şəhəri, H. Əliyev prospekti",37,41.362584,48.522964,1,0,0,0,0,,,,
781,"Market, Qam-Qam kəndi",market-qam-qam-kendi-443,A,"Quba rayonu, Qam-Qam kəndi",37,41.253511090490264,48.585066706709476,1,0,0,0,0,,,,
782,"Quba-Qəçrəş yolu, Favorit minimarketi",quba-qecresh-yolu-favorit-minimarketi-444,A,"Quba şəhəri, Quba-Qəçrəş yolu",37,41.358769,48.493837,1,0,0,0,0,,,,
783,"Qonaqkənd kəndi, Ticarət mərkəzi",qonaqkend-kendi-ticaret-merkezi-445,A,"Quba rayonu, Qonaqkənd kəndi",37,41.073043,48.609583,1,0,0,0,0,,,,
784,"Timiryazev qəsəbəsi, Yeni avtovağzal",timiryazev-qesebesi-yeni-avtovagzal-446,A,"Quba şəhəri, Timiryazev qəsəbəsi",37,41.33746203369878,48.54361500004403,1,0,0,0,0,,,,
785,"Arzu kəndi, market",arzu-kendi-market-447,A,"Quba rayonu, Arzu kəndi",37,41.402349,48.697547,1,0,0,0,0,,,,
786,"Market, Quba rayonu",market-quba-rayonu-720,A,"Quba şəhəri, Səkinə Xanım küçəsi 37",37,41.36237349754688,48.50327681413009,1,0,0,0,0,,,,
787,"Qırmızı qəsəbə, Piramida market",qirmizi-qesebe-piramida-market-449,A,"Quba rayonu, Qırmızı qəsəbə, Fətəlixan küçəsi",37,41.372063,48.520288,1,0,0,0,0,,,,
788,"24 Saat market, Quba",24-saat-market-quba-448,A,"Quba şəhəri, H. Əliyev prospekti",37,41.362407,48.528044,1,0,0,0,0,,,,
789,"2-ci Nüqədi kəndi, Qardaşlar Ticarət mərkəzi",2-ci-nuqedi-kendi-qardashlar-ticaret-merkezi-451,A,"Quba rayonu, 2-ci Nüqədi kəndi",37,41.318055,48.580599,1,0,0,0,0,,,,
790,"Aşağı Atuc kəndi, Daxili Qoşunların hərbi hissə",ashagi-atuc-kendi-daxili-qoshunlarin-herbi-hisse-759,A,"Quba rayonu, Aşağı Atuc kəndi",37,41.453909,48.566074,1,0,0,0,0,,,,
791,Rixos Quba Hotel,rixos-quba-hotel-752,A,"Quba rayonu, Nərimanabad kəndi",37,41.331675,48.498553,1,0,1,0,0,,,,
792,Quba şəh ASAN Xidmət,quba-sheh-asan-xidmet-818,A,Quba şəh. H. Əliyev prospekti. ASAN Xidmət,37,41.364695,48.555218,1,0,1,0,0,,,,
793,"Şəki şəhəri, Ticarət mərkəzi (M.Ə.Rəsulzadə küçəsi)",sheki-sheheri-ticaret-merkezi-meresulzade-kucesi-476,A,"Şəki şəhəri, M.Ə.Rəsulzadə küçəsi 166",59,41.19801,47.176086,1,0,0,0,0,,,,
794,"""Yenilik"" Ticarət mərkəzi, Şəki şəhəri",yenilik-ticaret-merkezi-sheki-sheheri-477,A,"Şəki şəhəri, H. Əliyev prospekti 4",59,41.20208,47.177904,1,0,0,0,0,,,,
795,"Şəki, Bazarstore Supermarket",sheki-bazarstore-supermarket-772,A,"Şəki şəhəri, Sabit Rəhman küçəsi 27",59,41.201376,47.167838,1,0,0,0,0,,,,
796,Şəki filialı,sheki-rayon-filiali-479,A,"Şəki şəhəri, M.Müşfiq küçəsi 40",59,41.1995273,47.17730072,1,0,0,0,0,,,,
797,"Aşağı Göynük kəndi, ""Anar"" market",ashagi-goynuk-kendi-anar-market-481,A,"Şəki rayonu, Aşağı Göynük kəndi",59,41.271117,47.012063,1,0,0,0,0,,,,
798,"Şəki şəhəri, Şəki Məhkəmə Kompleksi",sheki-sheheri-sheki-mehkeme-kompleksi-478,A,"Şəki şəhəri, Salman Mümtaz küçəsi 1",59,41.185165,47.158511,1,0,0,0,0,,,,
799,"Kiş kəndi, Marxal İstirahət kompleksi",kish-kendi-marxal-istirahet-kompleksi-588,A,"Şəki rayonu, Kiş kəndi",59,41.245175,47.202249,1,0,0,0,0,,,,
800,"12 saylı DƏDRX, Şəki şəhəri",12-sayli-dedrx-sheki-sheheri-809,A,"Şəki şəhəri, Heydər Əliyev prospekti 9A",59,41.206244,47.17048,1,0,0,0,0,,,,
801,Oğuz filialı,oguz-rayon-filiali-470,A,"Oğuz rayon , H. Aslanov küçəsi 10",47,41.071963,47.463227,1,0,0,0,0,,,,
802,"""Oğuz Store"" market, Oğuz rayonu",oguz-store-market-oguz-rayonu-471,A,"Oğuz şəhəri, H. Əliyev prospekti 16",47,41.064597,47.463658,1,0,0,0,0,,,,
803,Qax filialı,qax-rayon-filiali-483,A,"Qax şəhəri, Ü. Hacıbəyov küçəsi 10",33,41.422216,46.914099,1,0,0,0,0,,,,
805,Stopshop market,stopshop-market-486,A,"Qax rayonu, Qorağan kəndi",33,41.390583,46.745045,1,0,0,0,0,,,,
806,Şamaxı  filialı,shamaxi-rayon-filiali-489,A,"Şamaxı şəhəri, Gənclər küçəsi 33",58,40.633387,48.642768,1,0,0,0,0,,,,
807,"Şamaxı, ""VİP"" market",shamaxi-vip-market-490,A,"Şamaxı şəhəri, S. Ə. Şirvani və C. Cabbarlı küç. kəsişməsi",58,40.626145,48.647021,1,0,0,0,0,,,,
808,"Şamaxı, Ocaq market",shamaxi-ocaq-market-721,A,"Şamaxı şəhəri, M.Ə.Rəsulzadə küçəsi 28",58,40.642124,48.635717,1,0,0,0,0,,,,
809,Shamaxi Palace,shamaxi-palace-965,A,"Şamaxı rayonu, Şamaxı Palas Otel",58,40.625617,48.469508,1,0,0,0,0,,,,
810,Qobustan  filialı,qobustan-rayon-filiali-487,A,"Qobustan şəhəri, Yeni massiv 1, ev 11",36,40.52933,48.938007,1,0,0,0,0,,,,
811,"""Ramil"" market, Qobustan rayonu",ramil-market-qobustan-rayonu-488,A,"Qobustan şəhəri, H. Əliyev prospekti 1",36,40.53518,48.91401,1,0,0,0,0,,,,
812,Kürdəmir rayon filialı,kurdemir-rayon-filiali-403,A,"Kürdəmir rayonu, Babək küçəsi 47",32,40.352759,48.163345,1,0,0,0,0,,,,
813,"Kürdəmir, Kürdəmir Poçt Filialı",kurdemir-kurdemir-poct-filiali-404,A,"Kürdəmir şəhəri, H. Əliyev prospekti 3",32,40.345445,48.147566,1,0,0,0,0,,,,
814,"""Asi"" market, Kürdəmir rayonu",asi-market-kurdemir-rayonu-406,A,"Kürdəmir şəhəri, Bakı prospekti 33",32,40.336288,48.151029,1,0,0,0,0,,,,
815,Qəbələ filialı,qebele-rayon-filiali-361,A,"Qəbələ şəhəri, İ. Qutqaşınlı küçəsi 50",35,40.976474,47.844597,1,0,0,0,0,,,,
816,Qəbələ Telekommunikasiya Qovşağı,qebele-telekommunikasiya-qovshagi-362,A,"Qəbələ şəhəri, H.Əliyev küçəsi 39",35,40.976897,47.852908,1,0,0,0,0,,,,
817,"Zarağan kəndi, ""Makromart"" Market",zaragan-kendi-makromart-market-363,A,"Qəbələ rayonu, Zarağan kəndi",35,40.92802,47.80167,1,0,0,0,0,,,,
818,"Xəzər market, Vəndam kəndi",xezer-market-vendam-kendi-364,A,"Qəbələ rayonu, Vəndam kəndi, Qaraməryam-İsmayıllı-Şəki yolu",35,40.946482,47.941951,1,0,0,0,0,,,,
819,Yevlax filialı,yevlax-filiali-520,A,"Yevlax şəhəri, H.Əliyev prospekti 20",67,40.616445,47.147981,1,0,0,0,0,,,,
820,"""Ruzi"" market, Yevlax şəhəri",ruzi-market-yevlax-sheheri-521,A,"Yevlax şəhəri, H. Əliyev prospekti 101",67,40.59733,47.144402,1,0,0,0,0,,,,
821,"""313 Məişət avadanlıqları"", Yevlax şəhəri",313-meishet-avadanliqlari-yevlax-sheheri-522,A,"Yevlax şəhəri, Ceyhun Mustafayev küçəsi 19",67,40.60604745450954,47.13906156050382,1,0,0,0,0,,,,
822,"Tural market, Yevlax şəhəri",tural-market-yevlax-sheheri-523,A,"Yevlax şəhəri, Nizami pr. 76",67,40.613751,47.152258,1,0,0,0,0,,,,
823,"2-ci Aran qəsəbəsi, Ticarət mərkəzi",2-ci-aran-qesebesi-ticaret-merkezi-524,A,"Yevlax şəhəri, 2-ci Aran qəsəbəsi",67,40.631746,46.987481,1,0,0,0,0,,,,
824,"Xaldan kəndi, Ticarət mərkəzi",xaldan-kendi-ticaret-merkezi-525,A,"Yevlax rayonu, Xaldan kəndi",67,40.713897,47.218449,1,0,0,0,0,,,,
825,"Yevlax rayonu, Yevlax mərkəzi rayon xəstəxanası",yevlax-rayonu-yevlax-merkezi-rayon-xestexanasi-882,A,"Yevlax rayonu, Yevlax mərkəzi rayon xəstəxanası",67,40.597528,47.158139,1,0,0,0,0,,,,
826,Mingəçevir filialı,mingecevir-filiali-231,A,"Mingəçevir şəhəri, V.Hüseynov küçəsi 10/97",43,40.771459,47.039832,1,0,0,0,0,,,,
827,"Mingəçevir, 5+ Supermarket",mingecevir-5-supermarket-230,A,"Mingəçevir şəhəri, Nizami küçəsi 13",43,40.761517,47.05868,1,0,0,0,0,,,,
828,"Mingəçevir, Makromart",mingecevir-makromart-229,A,"Mingəçevir şəhəri, H. Əliyev prospekti 31",43,40.77247,47.047832,1,0,0,0,0,,,,
829,Mingəçevir filialı,mingecevir-filiali-830,A,"Mingəçevir şəhəri, V.Hüseynov küçəsi 10/97",43,40.771463,47.039805,1,0,0,0,0,,,,
830,"Əli İnşaat dükanı, Mingəçevir Tibb Kollecinin yaxınlığı",eli-inshaat-dukani-mingecevir-tibb-kollecinin-yaxinligi-232,A,"Mingəçevir rayonu, AzDres qəsəbəsi, Naxçıvan küçəsi",43,40.769927638832876,46.99843049123096,1,0,0,0,0,,,,
831,"Mingəçevir, Qaçqın və Məcburi Köçkünlərin şəhərciyi",mingecevir-qacqin-ve-mecburi-kockunlerin-sheherciyi-233,A,"Mingəçevir şəhəri, Qaçqın və Məcburi Köçkünlərin şəhərciyi",43,40.756217,47.083537,1,0,0,0,0,,,,
832,"5+ Supermarket, Mingəçevir şəhəri",5-supermarket-mingecevir-sheheri-858,A,"Mingəçevir şəhəri, M.Maqomayev 16/1",43,40.766947,47.045803,1,0,0,0,0,,,,
833,Mingəçevir ASAN Xidmət,mingecevir-asan-xidmet-873,A,"Mingəçevir şəhəri, H.Əliyev prospekti 380",43,40.771213,47.035243,1,0,1,0,0,,,,
834,Azərbaycan İstilik Elektrik Stansiyası MMC,azerbaycan-istilik-elektrik-stansiyasi-mmc-927,A,"Mingəçevir şəhəri, C.Əliyev küçəsi 2",43,40.779295,46.989449,1,0,0,0,0,,,,
835,Tərtər filialı,terter-rayon-filiali-334,A,"Tərtər şəhəri, E.Hüseynov küçəsi 9",63,40.342122,46.93021,1,0,0,0,0,,,,
836,Tərtər filialı,terter-filiali-829,A,"Tərtər şəhəri, E.Hüseynov küçəsi 9",63,40.342309,46.930374,1,0,0,0,0,,,,
837,"Ticarət mərkəzi, Tərtər şəhəri",ticaret-merkezi-terter-sheheri-336,A,"Tərtər şəhəri, Nizami küçəsi 40B",63,40.417868,46.945762,1,0,0,0,0,,,,
